[
  {
    "lon": 73.63157999999999,
    "lat": 18.51983000000003,
    "id": "bus_32769",
    "code": "151131",
    "name": "Forest Office Road",
    "type": "bus_stop",
    "osm_node_id": 10898562260,
    "osm_snap_dist_deg": 0.13077594878763305
  },
  {
    "lon": 73.82707999999998,
    "lat": 18.52888999999998,
    "id": "bus_32770",
    "code": "152339",
    "name": "Kusalkar Putala",
    "type": "bus_stop",
    "osm_node_id": 10241613169,
    "osm_snap_dist_deg": 4.382065723694241e-05
  },
  {
    "lon": 73.78613000000001,
    "lat": 18.67007000000001,
    "id": "bus_32771",
    "code": "154648",
    "name": "Tower Line",
    "type": "bus_stop",
    "osm_node_id": 11140547907,
    "osm_snap_dist_deg": 0.0598227183601756
  },
  {
    "lon": 73.81941999999997,
    "lat": 18.62929999999998,
    "id": "bus_32772",
    "code": "153069",
    "name": "Nehrunagar Depot",
    "type": "bus_stop",
    "osm_node_id": 10244063099,
    "osm_snap_dist_deg": 0.019431629465881728
  },
  {
    "lon": 73.90019000000001,
    "lat": 18.49153,
    "id": "bus_32773",
    "code": "151724",
    "name": "Jagtap Chowk",
    "type": "bus_stop",
    "osm_node_id": 6261240245,
    "osm_snap_dist_deg": 0.0004981334459787918
  },
  {
    "lon": 74.04588000000003,
    "lat": 18.71115000000002,
    "id": "bus_32774",
    "code": "150534",
    "name": "Bhosalevasti Nagar Road",
    "type": "bus_stop",
    "osm_node_id": 7986862756,
    "osm_snap_dist_deg": 0.1418383946618803
  },
  {
    "lon": 73.79088999999998,
    "lat": 18.44996000000002,
    "id": "bus_32775",
    "code": "152190",
    "name": "Kirkatwadi Phata",
    "type": "bus_stop",
    "osm_node_id": 10081253272,
    "osm_snap_dist_deg": 0.0014253872631664448
  },
  {
    "lon": 73.81317000000003,
    "lat": 18.46107,
    "id": "bus_32776",
    "code": "150995",
    "name": "Dhayari Phata",
    "type": "bus_stop",
    "osm_node_id": 10239554472,
    "osm_snap_dist_deg": 0.0003409736939915073
  },
  {
    "lon": 74.03971999999997,
    "lat": 18.66616999999998,
    "id": "bus_32778",
    "code": "154748",
    "name": "Vadhu Bk",
    "type": "bus_stop",
    "osm_node_id": 7986862756,
    "osm_snap_dist_deg": 0.10797055922909292
  },
  {
    "lon": 73.80691000000002,
    "lat": 18.63367999999999,
    "id": "bus_32779",
    "code": "152694",
    "name": "Masulkar Colony",
    "type": "bus_stop",
    "osm_node_id": 681268744,
    "osm_snap_dist_deg": 0.023838040903139627
  },
  {
    "lon": 73.81720000000001,
    "lat": 18.51154,
    "id": "bus_32781",
    "code": "150411",
    "name": "Bedekar Ganpati Mandir",
    "type": "bus_stop",
    "osm_node_id": 1599563306,
    "osm_snap_dist_deg": 0.00010913867326394112
  },
  {
    "lon": 73.82880000000002,
    "lat": 18.51485000000001,
    "id": "bus_32782",
    "code": "150465",
    "name": "Bhandarkar Road",
    "type": "bus_stop",
    "osm_node_id": 1223958860,
    "osm_snap_dist_deg": 0.00012060402148608403
  },
  {
    "lon": 73.88619,
    "lat": 18.53300000000003,
    "id": "bus_32783",
    "code": "150620",
    "name": "Budhrani Hospital",
    "type": "bus_stop",
    "osm_node_id": 2171089298,
    "osm_snap_dist_deg": 0.0003784135304085944
  },
  {
    "lon": 73.84442000000001,
    "lat": 18.51301000000001,
    "id": "bus_32786",
    "code": "152307",
    "name": "Kulkarni Petrol Pump",
    "type": "bus_stop",
    "osm_node_id": 2085746130,
    "osm_snap_dist_deg": 0.00018835392219611092
  },
  {
    "lon": 74.04912000000003,
    "lat": 18.72613999999997,
    "id": "bus_32787",
    "code": "152687",
    "name": "Maruti Mandir Vajewadi",
    "type": "bus_stop",
    "osm_node_id": 7984450122,
    "osm_snap_dist_deg": 0.15514409745900704
  },
  {
    "lon": 73.90107,
    "lat": 18.50628999999999,
    "id": "bus_32790",
    "code": "151124",
    "name": "Fatima Nagar Wanowrie",
    "type": "bus_stop",
    "osm_node_id": 12109702231,
    "osm_snap_dist_deg": 0.00020656420310440315
  },
  {
    "lon": 73.77467000000001,
    "lat": 18.65314000000001,
    "id": "bus_32792",
    "code": "154659",
    "name": "Trimurti Hall",
    "type": "bus_stop",
    "osm_node_id": 4694076265,
    "osm_snap_dist_deg": 0.042817966254492426
  },
  {
    "lon": 73.84863999999997,
    "lat": 18.71611000000002,
    "id": "bus_32793",
    "code": "153920",
    "name": "Sandesh Model Colony",
    "type": "bus_stop",
    "osm_node_id": 7981427372,
    "osm_snap_dist_deg": 0.10583006252466115
  },
  {
    "lon": 73.75115000000001,
    "lat": 18.45030999999999,
    "id": "bus_32794",
    "code": "150811",
    "name": "D2 Circle",
    "type": "bus_stop",
    "osm_node_id": 8021650233,
    "osm_snap_dist_deg": 0.010713209674961045
  },
  {
    "lon": 73.68673000000001,
    "lat": 18.62335,
    "id": "bus_32796",
    "code": "154090",
    "name": "Sharwari Complex",
    "type": "bus_stop",
    "osm_node_id": 4693596413,
    "osm_snap_dist_deg": 0.07648270083023959
  },
  {
    "lon": 73.82371,
    "lat": 18.63076999999999,
    "id": "bus_32797",
    "code": "151853",
    "name": "Jyoti English School",
    "type": "bus_stop",
    "osm_node_id": 2411887125,
    "osm_snap_dist_deg": 0.020513386853700497
  },
  {
    "lon": 73.90010999999998,
    "lat": 18.48879999999998,
    "id": "bus_32798",
    "code": "152078",
    "name": "Kedarinagar",
    "type": "bus_stop",
    "osm_node_id": 674707090,
    "osm_snap_dist_deg": 0.0007526458463495251
  },
  {
    "lon": 73.85528000000001,
    "lat": 18.52129000000001,
    "id": "bus_32799",
    "code": "154071",
    "name": "Shaniwarwada",
    "type": "bus_stop",
    "osm_node_id": 245647013,
    "osm_snap_dist_deg": 5.694778308861174e-05
  },
  {
    "lon": 74.04313000000002,
    "lat": 18.68797,
    "id": "bus_32800",
    "code": "150693",
    "name": "Chaudharivasti Nagar Road",
    "type": "bus_stop",
    "osm_node_id": 7986862756,
    "osm_snap_dist_deg": 0.12378584087145701
  },
  {
    "lon": 73.82566,
    "lat": 18.49001000000002,
    "id": "bus_32801",
    "code": "151068",
    "name": "Durvankur Bungalow",
    "type": "bus_stop",
    "osm_node_id": 6263156093,
    "osm_snap_dist_deg": 5.2009999032198584e-05
  },
  {
    "lon": 73.76714,
    "lat": 18.65062000000002,
    "id": "bus_32805",
    "code": "153486",
    "name": "Pradhikaran Police Chowky",
    "type": "bus_stop",
    "osm_node_id": 2598286201,
    "osm_snap_dist_deg": 0.0404243717292149
  },
  {
    "lon": 73.86135,
    "lat": 18.52088000000002,
    "id": "bus_32807",
    "code": "151306",
    "name": "Gavkos Maruti",
    "type": "bus_stop",
    "osm_node_id": 7975602110,
    "osm_snap_dist_deg": 9.946516978025753e-05
  },
  {
    "lon": 73.61863999999998,
    "lat": 18.58329000000001,
    "id": "bus_32808",
    "code": "152093",
    "name": "Kemsewadi Shala",
    "type": "bus_stop",
    "osm_node_id": 11641140354,
    "osm_snap_dist_deg": 0.14344396311248062
  },
  {
    "lon": 73.83203,
    "lat": 18.62798,
    "id": "bus_32810",
    "code": "154674",
    "name": "Tulsi Chemicals",
    "type": "bus_stop",
    "osm_node_id": 8005878839,
    "osm_snap_dist_deg": 0.01840334183266732
  },
  {
    "lon": 73.88416000000002,
    "lat": 18.54527999999998,
    "id": "bus_32811",
    "code": "155037",
    "name": "Yerawada",
    "type": "bus_stop",
    "osm_node_id": 10227963416,
    "osm_snap_dist_deg": 7.70424558578872e-05
  },
  {
    "lon": 73.69126,
    "lat": 18.62155000000003,
    "id": "bus_32813",
    "code": "150892",
    "name": "Dattawadi Kasarsai",
    "type": "bus_stop",
    "osm_node_id": 4693596413,
    "osm_snap_dist_deg": 0.07170734560901337
  },
  {
    "lon": 73.84581,
    "lat": 18.48614,
    "id": "bus_32814",
    "code": "150754",
    "name": "Chintamani Society",
    "type": "bus_stop",
    "osm_node_id": 1255244730,
    "osm_snap_dist_deg": 0.00013939655662854793
  },
  {
    "lon": 73.85549999999999,
    "lat": 18.56621999999998,
    "id": "bus_32816",
    "code": "150156",
    "name": "Ammunition Canteen",
    "type": "bus_stop",
    "osm_node_id": 7988014596,
    "osm_snap_dist_deg": 0.00023864863291164068
  },
  {
    "lon": 73.77076999999998,
    "lat": 18.6558,
    "id": "bus_32817",
    "code": "154317",
    "name": "Sindhunagar",
    "type": "bus_stop",
    "osm_node_id": 4694076214,
    "osm_snap_dist_deg": 0.04558270283309102
  },
  {
    "lon": 73.82271999999999,
    "lat": 18.60936000000002,
    "id": "bus_32819",
    "code": "153001",
    "name": "Nashik Phata",
    "type": "bus_stop",
    "osm_node_id": 10244103955,
    "osm_snap_dist_deg": 0.00011224513353204567
  },
  {
    "lon": 73.60861999999999,
    "lat": 18.59446,
    "id": "bus_32820",
    "code": "153356",
    "name": "Pimpavali Phata",
    "type": "bus_stop",
    "osm_node_id": 11641140354,
    "osm_snap_dist_deg": 0.15327540323683492
  },
  {
    "lon": 73.96693,
    "lat": 18.52508,
    "id": "bus_32821",
    "code": "151332",
    "name": "Ghavtenagar",
    "type": "bus_stop",
    "osm_node_id": 7986581905,
    "osm_snap_dist_deg": 0.015411509266128673
  },
  {
    "lon": 73.79257000000001,
    "lat": 18.50432000000002,
    "id": "bus_32822",
    "code": "153759",
    "name": "Raviraj Residency",
    "type": "bus_stop",
    "osm_node_id": 1562704030,
    "osm_snap_dist_deg": 0.00027340976570782913
  },
  {
    "lon": 73.79804,
    "lat": 18.50323999999999,
    "id": "bus_32823",
    "code": "152312",
    "name": "Kumbare Park",
    "type": "bus_stop",
    "osm_node_id": 7620321391,
    "osm_snap_dist_deg": 6.50468292761255e-05
  },
  {
    "lon": 73.92207000000002,
    "lat": 18.50373999999999,
    "id": "bus_16440",
    "code": "111715",
    "name": "Vaiduwadi",
    "type": "bus_stop",
    "osm_node_id": 2961618243,
    "osm_snap_dist_deg": 0.00011722717264306012
  },
  {
    "lon": 73.93326000000003,
    "lat": 18.44699,
    "id": "bus_32825",
    "code": "150277",
    "name": "Autadewadi Phata",
    "type": "bus_stop",
    "osm_node_id": 7975942469,
    "osm_snap_dist_deg": 8.778804017937989e-05
  },
  {
    "lon": 73.86051,
    "lat": 18.43628999999997,
    "id": "bus_32828",
    "code": "152634",
    "name": "Mangdewadi Petrol Pump",
    "type": "bus_stop",
    "osm_node_id": 3838566540,
    "osm_snap_dist_deg": 6.712153153828501e-05
  },
  {
    "lon": 73.89685,
    "lat": 18.65848999999999,
    "id": "bus_32829",
    "code": "154879",
    "name": "Vitbhatti Charholi",
    "type": "bus_stop",
    "osm_node_id": 6782156304,
    "osm_snap_dist_deg": 0.049126443441885395
  },
  {
    "lon": 73.69584000000002,
    "lat": 18.51753000000001,
    "id": "bus_32830",
    "code": "153748",
    "name": "Rautnagar",
    "type": "bus_stop",
    "osm_node_id": 10898562260,
    "osm_snap_dist_deg": 0.0664842627792353
  },
  {
    "lon": 73.82326999999998,
    "lat": 18.61099999999998,
    "id": "bus_32831",
    "code": "150772",
    "name": "CIRT",
    "type": "bus_stop",
    "osm_node_id": 2411887125,
    "osm_snap_dist_deg": 0.0007573270165349481
  },
  {
    "lon": 73.66937,
    "lat": 18.54271999999999,
    "id": "bus_32832",
    "code": "151350",
    "name": "Ghotawade Road Petrol Pump",
    "type": "bus_stop",
    "osm_node_id": 4704949625,
    "osm_snap_dist_deg": 0.0932862779345868
  },
  {
    "lon": 73.96361999999999,
    "lat": 18.45771999999999,
    "id": "bus_32834",
    "code": "150311",
    "name": "Bahiratwadi",
    "type": "bus_stop",
    "osm_node_id": 2288981374,
    "osm_snap_dist_deg": 0.013094887124736844
  },
  {
    "lon": 74.01553999999999,
    "lat": 18.38319000000002,
    "id": "bus_32835",
    "code": "151021",
    "name": "Divegaon",
    "type": "bus_stop",
    "osm_node_id": 8021717699,
    "osm_snap_dist_deg": 0.0835450416089783
  },
  {
    "lon": 74.02167,
    "lat": 18.48915999999999,
    "id": "bus_32837",
    "code": "152447",
    "name": "Loni Station",
    "type": "bus_stop",
    "osm_node_id": 3736971287,
    "osm_snap_dist_deg": 0.07027671621390734
  },
  {
    "lon": 73.89031999999999,
    "lat": 18.46170999999999,
    "id": "bus_32838",
    "code": "154517",
    "name": "Talab Company",
    "type": "bus_stop",
    "osm_node_id": 9695088577,
    "osm_snap_dist_deg": 0.0001422032348287741
  },
  {
    "lon": 73.73782,
    "lat": 18.49914,
    "id": "bus_32839",
    "code": "154554",
    "name": "Tangde Bandhumala",
    "type": "bus_stop",
    "osm_node_id": 4703673059,
    "osm_snap_dist_deg": 0.024557916040458955
  },
  {
    "lon": 73.78552999999998,
    "lat": 18.61493000000001,
    "id": "bus_32840",
    "code": "152827",
    "name": "MM School",
    "type": "bus_stop",
    "osm_node_id": 4694047210,
    "osm_snap_dist_deg": 0.005011682065938526
  },
  {
    "lon": 73.72685999999999,
    "lat": 18.60505999999999,
    "id": "bus_32841",
    "code": "154147",
    "name": "Shindenagar Mharunji",
    "type": "bus_stop",
    "osm_node_id": 4693596401,
    "osm_snap_dist_deg": 0.03504459079588163
  },
  {
    "lon": 73.85388999999999,
    "lat": 18.44675000000001,
    "id": "bus_32845",
    "code": "150052",
    "name": "Agam Mandir",
    "type": "bus_stop",
    "osm_node_id": 8006239929,
    "osm_snap_dist_deg": 0.000517067732519486
  },
  {
    "lon": 73.84640000000002,
    "lat": 18.56754000000001,
    "id": "bus_32846",
    "code": "150111",
    "name": "Alegaonkar Shala",
    "type": "bus_stop",
    "osm_node_id": 10243888661,
    "osm_snap_dist_deg": 3.069397336385224e-05
  },
  {
    "lon": 73.85892999999997,
    "lat": 18.62463,
    "id": "bus_32848",
    "code": "154098",
    "name": "Shastri Chowk",
    "type": "bus_stop",
    "osm_node_id": 7981438298,
    "osm_snap_dist_deg": 0.014608146231809
  },
  {
    "lon": 73.8893,
    "lat": 18.53309,
    "id": "bus_32849",
    "code": "150196",
    "name": "Annadhanya Godam",
    "type": "bus_stop",
    "osm_node_id": 309924198,
    "osm_snap_dist_deg": 4.8769252618835417e-05
  },
  {
    "lon": 73.85311,
    "lat": 18.49957000000001,
    "id": "bus_32852",
    "code": "153253",
    "name": "Parvati Payatha",
    "type": "bus_stop",
    "osm_node_id": 2181433253,
    "osm_snap_dist_deg": 0.00021248854086231746
  },
  {
    "lon": 73.66365999999998,
    "lat": 18.73269999999998,
    "id": "bus_32853",
    "code": "153901",
    "name": "Samarth Vidyalay",
    "type": "bus_stop",
    "osm_node_id": 4693596413,
    "osm_snap_dist_deg": 0.1576323507541797
  },
  {
    "lon": 73.78298999999997,
    "lat": 18.70503,
    "id": "bus_32854",
    "code": "150959",
    "name": "Devi Indrayani Society",
    "type": "bus_stop",
    "osm_node_id": 8007399496,
    "osm_snap_dist_deg": 0.0947557586583519
  },
  {
    "lon": 73.87480999999998,
    "lat": 18.55585,
    "id": "bus_32857",
    "code": "151594",
    "name": "Homegaurd",
    "type": "bus_stop",
    "osm_node_id": 2629943193,
    "osm_snap_dist_deg": 0.00042771899654270887
  },
  {
    "lon": 73.79931,
    "lat": 18.54675000000002,
    "id": "bus_32858",
    "code": "154348",
    "name": "Someshwarwadi",
    "type": "bus_stop",
    "osm_node_id": 2578109853,
    "osm_snap_dist_deg": 8.523496934793478e-05
  },
  {
    "lon": 73.68921,
    "lat": 18.51034999999998,
    "id": "bus_32859",
    "code": "153392",
    "name": "Pirangut",
    "type": "bus_stop",
    "osm_node_id": 7127988572,
    "osm_snap_dist_deg": 0.07296167942488332
  },
  {
    "lon": 73.72457,
    "lat": 18.42455000000002,
    "id": "bus_32860",
    "code": "153428",
    "name": "Poultry Farm Agalambe",
    "type": "bus_stop",
    "osm_node_id": 1710078969,
    "osm_snap_dist_deg": 0.044351277612363266
  },
  {
    "lon": 73.83863000000001,
    "lat": 18.44897,
    "id": "bus_32861",
    "code": "151313",
    "name": "Gaymukh",
    "type": "bus_stop",
    "osm_node_id": 5160277198,
    "osm_snap_dist_deg": 5.9153444536125224e-05
  },
  {
    "lon": 73.85207999999999,
    "lat": 18.72269000000001,
    "id": "bus_32864",
    "code": "154382",
    "name": "Spicer India Company",
    "type": "bus_stop",
    "osm_node_id": 7981427372,
    "osm_snap_dist_deg": 0.11240163615344766
  },
  {
    "lon": 73.83916,
    "lat": 18.50098999999999,
    "id": "bus_32866",
    "code": "150889",
    "name": "Dattawadi",
    "type": "bus_stop",
    "osm_node_id": 822803278,
    "osm_snap_dist_deg": 3.860595807639985e-05
  },
  {
    "lon": 73.80354999999999,
    "lat": 18.56024999999999,
    "id": "bus_32867",
    "code": "153389",
    "name": "Pinok Society",
    "type": "bus_stop",
    "osm_node_id": 2253906740,
    "osm_snap_dist_deg": 6.069802303267441e-05
  },
  {
    "lon": 73.90201,
    "lat": 18.42408000000002,
    "id": "bus_32868",
    "code": "154661",
    "name": "Trinity College",
    "type": "bus_stop",
    "osm_node_id": 8027104893,
    "osm_snap_dist_deg": 0.006673119208415216
  },
  {
    "lon": 74.15418000000001,
    "lat": 18.60092000000001,
    "id": "bus_32869",
    "code": "154181",
    "name": "Shitolemala",
    "type": "bus_stop",
    "osm_node_id": 7987031207,
    "osm_snap_dist_deg": 0.20273084876717015
  },
  {
    "lon": 73.68948,
    "lat": 18.73469999999999,
    "id": "bus_32870",
    "code": "152652",
    "name": "Manoharnagar",
    "type": "bus_stop",
    "osm_node_id": 4693596413,
    "osm_snap_dist_deg": 0.14469421161983823
  },
  {
    "lon": 73.83521999999999,
    "lat": 18.49334,
    "id": "bus_32871",
    "code": "153400",
    "name": "PL Deshpande Udyan",
    "type": "bus_stop",
    "osm_node_id": 5202811044,
    "osm_snap_dist_deg": 0.00021035707736978917
  },
  {
    "lon": 73.7759,
    "lat": 18.5643,
    "id": "bus_32873",
    "code": "151891",
    "name": "Kalamkarvasti",
    "type": "bus_stop",
    "osm_node_id": 2566664407,
    "osm_snap_dist_deg": 0.00015103039429200125
  },
  {
    "lon": 73.57205999999998,
    "lat": 18.52902000000002,
    "id": "bus_32874",
    "code": "150085",
    "name": "Akole Bus Stop",
    "type": "bus_stop",
    "osm_node_id": 6270609634,
    "osm_snap_dist_deg": 0.19040966049561583
  },
  {
    "lon": 73.84592000000002,
    "lat": 18.45959,
    "id": "bus_32875",
    "code": "150143",
    "name": "Ambegaon Pathar Corner",
    "type": "bus_stop",
    "osm_node_id": 4342209550,
    "osm_snap_dist_deg": 0.0001301250552450535
  },
  {
    "lon": 73.96010999999999,
    "lat": 18.73557999999998,
    "id": "bus_32877",
    "code": "152264",
    "name": "Krushi Utpanna Bazar Samiti",
    "type": "bus_stop",
    "osm_node_id": 3651170030,
    "osm_snap_dist_deg": 0.12694994118803074
  },
  {
    "lon": 73.81953,
    "lat": 18.58987999999999,
    "id": "bus_32878",
    "code": "153416",
    "name": "Pooja Hospital",
    "type": "bus_stop",
    "osm_node_id": 10239658095,
    "osm_snap_dist_deg": 7.169944212867943e-05
  },
  {
    "lon": 73.82075000000002,
    "lat": 18.57596,
    "id": "bus_32879",
    "code": "153943",
    "name": "Sangvi",
    "type": "bus_stop",
    "osm_node_id": 10242029931,
    "osm_snap_dist_deg": 2.7146454661115987e-05
  },
  {
    "lon": 73.90039000000002,
    "lat": 18.45044,
    "id": "bus_32881",
    "code": "153505",
    "name": "Pravin Mehendi",
    "type": "bus_stop",
    "osm_node_id": 10232449170,
    "osm_snap_dist_deg": 0.0001888932502869156
  },
  {
    "lon": 73.85284999999999,
    "lat": 18.46217,
    "id": "bus_32882",
    "code": "153666",
    "name": "Rajmudra Society",
    "type": "bus_stop",
    "osm_node_id": 1597821674,
    "osm_snap_dist_deg": 6.84634939333275e-05
  },
  {
    "lon": 73.82290000000002,
    "lat": 18.47578,
    "id": "bus_32883",
    "code": "151239",
    "name": "Ganesh Park",
    "type": "bus_stop",
    "osm_node_id": 10113934491,
    "osm_snap_dist_deg": 0.000293909594957291
  },
  {
    "lon": 73.82695000000002,
    "lat": 18.52645000000001,
    "id": "bus_32884",
    "code": "151390",
    "name": "Gokhalenagar Shala",
    "type": "bus_stop",
    "osm_node_id": 2251843337,
    "osm_snap_dist_deg": 8.27377785398727e-05
  },
  {
    "lon": 73.84197000000002,
    "lat": 18.61962000000002,
    "id": "bus_32885",
    "code": "152394",
    "name": "Landewadi",
    "type": "bus_stop",
    "osm_node_id": 8005878852,
    "osm_snap_dist_deg": 0.011788373036620774
  },
  {
    "lon": 73.84262,
    "lat": 18.33995999999997,
    "id": "bus_32887",
    "code": "152395",
    "name": "Landgemala",
    "type": "bus_stop",
    "osm_node_id": 10230237305,
    "osm_snap_dist_deg": 0.09056626473309615
  },
  {
    "lon": 74.04609,
    "lat": 18.51937000000002,
    "id": "bus_32888",
    "code": "153478",
    "name": "Power House Theur",
    "type": "bus_stop",
    "osm_node_id": 10243835239,
    "osm_snap_dist_deg": 0.09456369512583254
  },
  {
    "lon": 73.98774999999999,
    "lat": 18.56737000000001,
    "id": "bus_32889",
    "code": "154339",
    "name": "Snehalay Apang Shala",
    "type": "bus_stop",
    "osm_node_id": 6270637040,
    "osm_snap_dist_deg": 0.0363446520175906
  },
  {
    "lon": 73.85451,
    "lat": 18.55820999999998,
    "id": "bus_32891",
    "code": "152752",
    "name": "Methodist Church",
    "type": "bus_stop",
    "osm_node_id": 11169343479,
    "osm_snap_dist_deg": 0.0006595204394293504
  },
  {
    "lon": 73.74270000000001,
    "lat": 18.40353999999997,
    "id": "bus_32893",
    "code": "152698",
    "name": "Matalwadi Khanapur",
    "type": "bus_stop",
    "osm_node_id": 618551629,
    "osm_snap_dist_deg": 0.03814881160364936
  },
  {
    "lon": 73.80159,
    "lat": 18.62121999999999,
    "id": "bus_32894",
    "code": "151973",
    "name": "Karachi Chowk",
    "type": "bus_stop",
    "osm_node_id": 681268744,
    "osm_snap_dist_deg": 0.010938804601042483
  },
  {
    "lon": 73.86433000000001,
    "lat": 18.55293999999999,
    "id": "bus_32896",
    "code": "151586",
    "name": "Holkar Pul Corner",
    "type": "bus_stop",
    "osm_node_id": 10241845726,
    "osm_snap_dist_deg": 0.00039176147080777923
  },
  {
    "lon": 73.93842,
    "lat": 18.56217000000002,
    "id": "bus_32898",
    "code": "152164",
    "name": "Kharadi Bypass",
    "type": "bus_stop",
    "osm_node_id": 1316253822,
    "osm_snap_dist_deg": 0.00011065193176430365
  },
  {
    "lon": 74.04739000000002,
    "lat": 18.63833999999999,
    "id": "bus_32902",
    "code": "152802",
    "name": "Mile Dagad Kramank 23 Nagar Road",
    "type": "bus_stop",
    "osm_node_id": 10245966362,
    "osm_snap_dist_deg": 0.10287983447937897
  },
  {
    "lon": 73.89622,
    "lat": 18.47686999999998,
    "id": "bus_32903",
    "code": "153088",
    "name": "NIBM Road",
    "type": "bus_stop",
    "osm_node_id": 12120087079,
    "osm_snap_dist_deg": 3.631859027815305e-05
  },
  {
    "lon": 73.73604,
    "lat": 18.59332999999999,
    "id": "bus_32905",
    "code": "151573",
    "name": "Hinjawadi Petrol Pump",
    "type": "bus_stop",
    "osm_node_id": 11641140354,
    "osm_snap_dist_deg": 0.025904537699212485
  },
  {
    "lon": 73.66309999999997,
    "lat": 18.48230999999997,
    "id": "bus_32907",
    "code": "150148",
    "name": "Ambegaon Phata Lavasa Road",
    "type": "bus_stop",
    "osm_node_id": 10246090237,
    "osm_snap_dist_deg": 0.09978064873563854
  },
  {
    "lon": 73.72222000000001,
    "lat": 18.65769000000002,
    "id": "bus_32909",
    "code": "152199",
    "name": "Kiwalegaon",
    "type": "bus_stop",
    "osm_node_id": 4693596413,
    "osm_snap_dist_deg": 0.062483316255550786
  },
  {
    "lon": 73.78433000000001,
    "lat": 18.61209,
    "id": "bus_32910",
    "code": "154566",
    "name": "Tapkirnagar Rahatni",
    "type": "bus_stop",
    "osm_node_id": 4694047210,
    "osm_snap_dist_deg": 0.0020257001579673255
  },
  {
    "lon": 73.68237,
    "lat": 18.40457000000002,
    "id": "bus_32911",
    "code": "153430",
    "name": "Poultry Farm Anisha",
    "type": "bus_stop",
    "osm_node_id": 618551629,
    "osm_snap_dist_deg": 0.09070648215407474
  },
  {
    "lon": 73.83847,
    "lat": 18.52936000000001,
    "id": "bus_32912",
    "code": "152830",
    "name": "Model Colony",
    "type": "bus_stop",
    "osm_node_id": 2203119331,
    "osm_snap_dist_deg": 0.00020812239187661358
  },
  {
    "lon": 73.67921999999997,
    "lat": 18.63206000000001,
    "id": "bus_32913",
    "code": "151634",
    "name": "Inam Aali",
    "type": "bus_stop",
    "osm_node_id": 4693596413,
    "osm_snap_dist_deg": 0.0857528407709894
  },
  {
    "lon": 73.84188,
    "lat": 18.46123,
    "id": "bus_32914",
    "code": "152632",
    "name": "Mangdenagar",
    "type": "bus_stop",
    "osm_node_id": 4333573481,
    "osm_snap_dist_deg": 0.00012124343281534679
  },
  {
    "lon": 73.90048000000003,
    "lat": 18.4986,
    "id": "bus_32917",
    "code": "154261",
    "name": "Shiwarkar Garden",
    "type": "bus_stop",
    "osm_node_id": 12281064030,
    "osm_snap_dist_deg": 0.0001806758700156174
  },
  {
    "lon": 73.95715999999999,
    "lat": 18.47667000000002,
    "id": "bus_32918",
    "code": "153460",
    "name": "Power House Fursungi",
    "type": "bus_stop",
    "osm_node_id": 7153603894,
    "osm_snap_dist_deg": 0.005889719076484885
  },
  {
    "lon": 74.11568,
    "lat": 18.61733000000003,
    "id": "bus_32919",
    "code": "154149",
    "name": "Shindevasti Burkegaon",
    "type": "bus_stop",
    "osm_node_id": 7987031207,
    "osm_snap_dist_deg": 0.1650242729111461
  },
  {
    "lon": 73.72847999999998,
    "lat": 18.66592999999999,
    "id": "bus_32921",
    "code": "151655",
    "name": "Indraprabha",
    "type": "bus_stop",
    "osm_node_id": 4693596413,
    "osm_snap_dist_deg": 0.06564176404005422
  },
  {
    "lon": 73.84996,
    "lat": 18.48303999999997,
    "id": "bus_32922",
    "code": "151033",
    "name": "Dnyaneshwar Society",
    "type": "bus_stop",
    "osm_node_id": 692945989,
    "osm_snap_dist_deg": 0.00023585868652429147
  },
  {
    "lon": 73.87137000000001,
    "lat": 18.45562999999997,
    "id": "bus_32923",
    "code": "153867",
    "name": "Sai Palace",
    "type": "bus_stop",
    "osm_node_id": 4335066736,
    "osm_snap_dist_deg": 2.3086793078729285e-06
  },
  {
    "lon": 73.81517999999998,
    "lat": 18.4915,
    "id": "bus_32924",
    "code": "154707",
    "name": "Vadacha Stop",
    "type": "bus_stop",
    "osm_node_id": 10239427377,
    "osm_snap_dist_deg": 0.00031458246931871826
  },
  {
    "lon": 73.87684999999999,
    "lat": 18.82867000000001,
    "id": "bus_32928",
    "code": "154169",
    "name": "Shiroli",
    "type": "bus_stop",
    "osm_node_id": 8006657531,
    "osm_snap_dist_deg": 0.21835232088680365
  },
  {
    "lon": 73.76091,
    "lat": 18.50325000000002,
    "id": "bus_32929",
    "code": "150898",
    "name": "Daulat Garden",
    "type": "bus_stop",
    "osm_node_id": 4703673050,
    "osm_snap_dist_deg": 0.001186208923410782
  },
  {
    "lon": 73.77708000000001,
    "lat": 18.54231,
    "id": "bus_32930",
    "code": "150421",
    "name": "Bhagvatinagar",
    "type": "bus_stop",
    "osm_node_id": 7256994774,
    "osm_snap_dist_deg": 0.00034907606619222616
  },
  {
    "lon": 73.68878999999998,
    "lat": 18.38954,
    "id": "bus_32931",
    "code": "153142",
    "name": "Osade Phata",
    "type": "bus_stop",
    "osm_node_id": 618551629,
    "osm_snap_dist_deg": 0.09042699660373728
  },
  {
    "lon": 73.82702999999997,
    "lat": 18.48895,
    "id": "bus_32932",
    "code": "153638",
    "name": "Rajaram Pul Corner",
    "type": "bus_stop",
    "osm_node_id": 2358247553,
    "osm_snap_dist_deg": 0.0003566504450842667
  },
  {
    "lon": 73.93271,
    "lat": 18.45311000000002,
    "id": "bus_32936",
    "code": "151519",
    "name": "Handewadigaon",
    "type": "bus_stop",
    "osm_node_id": 7172457733,
    "osm_snap_dist_deg": 0.00013942585845090914
  },
  {
    "lon": 73.77003999999998,
    "lat": 18.64928000000002,
    "id": "bus_32937",
    "code": "153905",
    "name": "Sambhaji Chowk",
    "type": "bus_stop",
    "osm_node_id": 4694060458,
    "osm_snap_dist_deg": 0.039062940991194846
  },
  {
    "lon": 73.77757,
    "lat": 18.52803,
    "id": "bus_32938",
    "code": "151605",
    "name": "HRA Reliance",
    "type": "bus_stop",
    "osm_node_id": 3987732293,
    "osm_snap_dist_deg": 0.0003495031902576867
  },
  {
    "lon": 74.11622,
    "lat": 18.48778999999999,
    "id": "bus_32939",
    "code": "150537",
    "name": "Bhosalevasti Uruli Kanchan",
    "type": "bus_stop",
    "osm_node_id": 3736971287,
    "osm_snap_dist_deg": 0.16472220910311297
  },
  {
    "lon": 73.87555000000002,
    "lat": 18.42671,
    "id": "bus_32940",
    "code": "151462",
    "name": "Gujarwadi",
    "type": "bus_stop",
    "osm_node_id": 8024632184,
    "osm_snap_dist_deg": 0.0045942514569822955
  },
  {
    "lon": 73.93848999999999,
    "lat": 18.50567000000001,
    "id": "bus_32942",
    "code": "153816",
    "name": "Sadhana Vidyalay",
    "type": "bus_stop",
    "osm_node_id": 10222864458,
    "osm_snap_dist_deg": 0.00014551374505476628
  },
  {
    "lon": 73.81956,
    "lat": 18.63035000000001,
    "id": "bus_32943",
    "code": "153064",
    "name": "Nehrunagar Corner",
    "type": "bus_stop",
    "osm_node_id": 2411887125,
    "osm_snap_dist_deg": 0.02045968509558264
  },
  {
    "lon": 73.76366999999999,
    "lat": 18.45008000000003,
    "id": "bus_32944",
    "code": "152125",
    "name": "Khadakwasla Dharan Stores",
    "type": "bus_stop",
    "osm_node_id": 245645104,
    "osm_snap_dist_deg": 5.6927761220926644e-05
  },
  {
    "lon": 73.80854,
    "lat": 18.75500000000001,
    "id": "bus_32945",
    "code": "152765",
    "name": "Mhalunge Phata Chakan",
    "type": "bus_stop",
    "osm_node_id": 681268744,
    "osm_snap_dist_deg": 0.14483522157300968
  },
  {
    "lon": 73.88049000000001,
    "lat": 18.83868000000002,
    "id": "bus_32946",
    "code": "150456",
    "name": "Bhandari Company",
    "type": "bus_stop",
    "osm_node_id": 8006657531,
    "osm_snap_dist_deg": 0.2284290412856022
  },
  {
    "lon": 73.84653000000002,
    "lat": 18.50112,
    "id": "bus_32948",
    "code": "150841",
    "name": "Dandekar Pul",
    "type": "bus_stop",
    "osm_node_id": 6476805193,
    "osm_snap_dist_deg": 5.234825689773324e-05
  },
  {
    "lon": 73.82448000000001,
    "lat": 18.66434,
    "id": "bus_32949",
    "code": "150780",
    "name": "CNG Pump Corner",
    "type": "bus_stop",
    "osm_node_id": 8005878839,
    "osm_snap_dist_deg": 0.05407563242912472
  },
  {
    "lon": 73.84987000000002,
    "lat": 18.49163999999999,
    "id": "bus_32952",
    "code": "152370",
    "name": "Lakshminagar Corner",
    "type": "bus_stop",
    "osm_node_id": 1255232352,
    "osm_snap_dist_deg": 9.645102383339462e-05
  },
  {
    "lon": 74.11936999999999,
    "lat": 18.49589,
    "id": "bus_32953",
    "code": "155011",
    "name": "Yadavvasti Prayagdham",
    "type": "bus_stop",
    "osm_node_id": 10239768031,
    "osm_snap_dist_deg": 0.1678711041689388
  },
  {
    "lon": 73.84832999999999,
    "lat": 18.67124000000001,
    "id": "bus_32954",
    "code": "150386",
    "name": "Bankarvasti",
    "type": "bus_stop",
    "osm_node_id": 7981427372,
    "osm_snap_dist_deg": 0.060984184834851414
  },
  {
    "lon": 74.04225,
    "lat": 18.68200000000001,
    "id": "bus_32955",
    "code": "150169",
    "name": "Anand Ashram",
    "type": "bus_stop",
    "osm_node_id": 7986862756,
    "osm_snap_dist_deg": 0.1192995818527905
  },
  {
    "lon": 73.82445000000001,
    "lat": 18.47881999999997,
    "id": "bus_32956",
    "code": "150184",
    "name": "Anand Nagar Sinhagad Road",
    "type": "bus_stop",
    "osm_node_id": 2558563098,
    "osm_snap_dist_deg": 0.0002342865340048178
  },
  {
    "lon": 73.76664999999998,
    "lat": 18.41227,
    "id": "bus_32957",
    "code": "151036",
    "name": "Donajegaon Phata",
    "type": "bus_stop",
    "osm_node_id": 618551629,
    "osm_snap_dist_deg": 0.018948225794782492
  },
  {
    "lon": 73.75374999999998,
    "lat": 18.60177999999998,
    "id": "bus_32959",
    "code": "150617",
    "name": "BU Bhandari Showroom",
    "type": "bus_stop",
    "osm_node_id": 6477076607,
    "osm_snap_dist_deg": 0.008320944516113775
  },
  {
    "lon": 73.89215000000002,
    "lat": 18.589,
    "id": "bus_32960",
    "code": "152933",
    "name": "Munjabavasti",
    "type": "bus_stop",
    "osm_node_id": 3644276169,
    "osm_snap_dist_deg": 0.00024823073944862446
  },
  {
    "lon": 73.92146,
    "lat": 18.46988,
    "id": "bus_32961",
    "code": "152838",
    "name": "Mohammadwadigaon",
    "type": "bus_stop",
    "osm_node_id": 1998624632,
    "osm_snap_dist_deg": 5.908231545939871e-05
  },
  {
    "lon": 73.92014999999999,
    "lat": 18.46820999999999,
    "id": "bus_32963",
    "code": "152839",
    "name": "Mohammadwadi Shala",
    "type": "bus_stop",
    "osm_node_id": 1998624423,
    "osm_snap_dist_deg": 0.00020060750236129728
  },
  {
    "lon": 73.84955000000001,
    "lat": 18.34701,
    "id": "bus_32964",
    "code": "152172",
    "name": "Khed Shivapur",
    "type": "bus_stop",
    "osm_node_id": 10246551269,
    "osm_snap_dist_deg": 0.08353402062447395
  },
  {
    "lon": 73.85980999999997,
    "lat": 18.43462999999999,
    "id": "bus_32965",
    "code": "152635",
    "name": "Mangdewadi Phata",
    "type": "bus_stop",
    "osm_node_id": 6241018728,
    "osm_snap_dist_deg": 0.00035556283554328584
  },
  {
    "lon": 73.82479000000001,
    "lat": 18.54173000000001,
    "id": "bus_32966",
    "code": "155005",
    "name": "Wireless Office",
    "type": "bus_stop",
    "osm_node_id": 10232586493,
    "osm_snap_dist_deg": 0.000432481502504801
  },
  {
    "lon": 73.84932,
    "lat": 18.71735000000002,
    "id": "bus_32968",
    "code": "151946",
    "name": "Kalyani Forge",
    "type": "bus_stop",
    "osm_node_id": 7981427372,
    "osm_snap_dist_deg": 0.10705955926480458
  },
  {
    "lon": 73.74810000000001,
    "lat": 18.73920000000002,
    "id": "bus_32970",
    "code": "154645",
    "name": "Toll Naka",
    "type": "bus_stop",
    "osm_node_id": 7983907569,
    "osm_snap_dist_deg": 0.13010118618838837
  },
  {
    "lon": 73.69618000000001,
    "lat": 18.51995000000001,
    "id": "bus_32971",
    "code": "151635",
    "name": "Inamdarvasti Rahutwadi",
    "type": "bus_stop",
    "osm_node_id": 10898562260,
    "osm_snap_dist_deg": 0.06621701350332268
  },
  {
    "lon": 73.67802999999999,
    "lat": 18.7168,
    "id": "bus_32972",
    "code": "154856",
    "name": "Vipraj Company",
    "type": "bus_stop",
    "osm_node_id": 4693596413,
    "osm_snap_dist_deg": 0.1362481143219629
  },
  {
    "lon": 73.72363000000001,
    "lat": 18.60692000000001,
    "id": "bus_32973",
    "code": "153959",
    "name": "Santkrupa Fabrication",
    "type": "bus_stop",
    "osm_node_id": 4693596401,
    "osm_snap_dist_deg": 0.038384062552691604
  },
  {
    "lon": 73.79831999999999,
    "lat": 18.66326000000001,
    "id": "bus_32974",
    "code": "151270",
    "name": "Ganpati Mandir Sambhajinagar",
    "type": "bus_stop",
    "osm_node_id": 2659601699,
    "osm_snap_dist_deg": 0.05303574282501778
  },
  {
    "lon": 73.98222,
    "lat": 18.42513000000001,
    "id": "bus_32975",
    "code": "153888",
    "name": "Sakal Office Vadaki",
    "type": "bus_stop",
    "osm_node_id": 8021717699,
    "osm_snap_dist_deg": 0.03353959447353996
  },
  {
    "lon": 73.77328,
    "lat": 18.56517,
    "id": "bus_32981",
    "code": "153898",
    "name": "Samadhi Mandir",
    "type": "bus_stop",
    "osm_node_id": 2566664405,
    "osm_snap_dist_deg": 0.00014217876072054525
  },
  {
    "lon": 73.87306999999998,
    "lat": 18.52739,
    "id": "bus_32983",
    "code": "153549",
    "name": "Pune Station",
    "type": "bus_stop",
    "osm_node_id": 8021160080,
    "osm_snap_dist_deg": 6.160275967929256e-05
  },
  {
    "lon": 73.8562,
    "lat": 18.51978000000001,
    "id": "bus_32984",
    "code": "152026",
    "name": "Kasba Peth Police Chowky",
    "type": "bus_stop",
    "osm_node_id": 11459344049,
    "osm_snap_dist_deg": 5.663682548626761e-05
  },
  {
    "lon": 73.8516,
    "lat": 18.34882999999999,
    "id": "bus_32985",
    "code": "152201",
    "name": "Kodhanpur Phata",
    "type": "bus_stop",
    "osm_node_id": 8017799590,
    "osm_snap_dist_deg": 0.08166737314479797
  },
  {
    "lon": 73.87018999999998,
    "lat": 18.30393000000001,
    "id": "bus_32986",
    "code": "154795",
    "name": "Varvegaon",
    "type": "bus_stop",
    "osm_node_id": 10246462415,
    "osm_snap_dist_deg": 0.12662429753201945
  },
  {
    "lon": 73.62853000000003,
    "lat": 18.54273000000002,
    "id": "bus_32987",
    "code": "152899",
    "name": "Mugawade",
    "type": "bus_stop",
    "osm_node_id": 5246740988,
    "osm_snap_dist_deg": 0.13399727618531307
  },
  {
    "lon": 73.85702000000002,
    "lat": 18.40084999999998,
    "id": "bus_32989",
    "code": "151329",
    "name": "Ghat Utar Valan",
    "type": "bus_stop",
    "osm_node_id": 8014939977,
    "osm_snap_dist_deg": 0.0297722792935148
  },
  {
    "lon": 73.76413,
    "lat": 18.67349,
    "id": "bus_32990",
    "code": "152203",
    "name": "kohima line",
    "type": "bus_stop",
    "osm_node_id": 2598286201,
    "osm_snap_dist_deg": 0.06326731789557874
  },
  {
    "lon": 73.85134999999998,
    "lat": 18.53520999999999,
    "id": "bus_32991",
    "code": "152348",
    "name": "Labour Office",
    "type": "bus_stop",
    "osm_node_id": 10241727757,
    "osm_snap_dist_deg": 0.0008236576230481368
  },
  {
    "lon": 73.87270000000002,
    "lat": 18.80501,
    "id": "bus_32992",
    "code": "150452",
    "name": "Bham",
    "type": "bus_stop",
    "osm_node_id": 8006657531,
    "osm_snap_dist_deg": 0.19468694020054167
  },
  {
    "lon": 73.88186000000002,
    "lat": 18.26593,
    "id": "bus_32994",
    "code": "150704",
    "name": "Cheladi Phata",
    "type": "bus_stop",
    "osm_node_id": 8024587177,
    "osm_snap_dist_deg": 0.16478849302557422
  },
  {
    "lon": 73.65482000000002,
    "lat": 18.72839999999999,
    "id": "bus_32995",
    "code": "154740",
    "name": "Vadgaonmawal Phata",
    "type": "bus_stop",
    "osm_node_id": 4693596413,
    "osm_snap_dist_deg": 0.16006965184032818
  },
  {
    "lon": 73.81236,
    "lat": 18.63324999999999,
    "id": "bus_24804",
    "code": "137874",
    "name": "Vitthal Mandir Mhasolkar",
    "type": "bus_stop",
    "osm_node_id": 10244063099,
    "osm_snap_dist_deg": 0.025049252717385867
  },
  {
    "lon": 73.70999,
    "lat": 18.57578000000002,
    "id": "bus_32996",
    "code": "153681",
    "name": "Rakshevasti",
    "type": "bus_stop",
    "osm_node_id": 6270573808,
    "osm_snap_dist_deg": 0.052392628191851226
  },
  {
    "lon": 73.70037,
    "lat": 18.38947000000001,
    "id": "bus_32997",
    "code": "154791",
    "name": "Vardade Phata",
    "type": "bus_stop",
    "osm_node_id": 618551629,
    "osm_snap_dist_deg": 0.08035193665847719
  },
  {
    "lon": 73.83166,
    "lat": 18.49616,
    "id": "bus_32998",
    "code": "153790",
    "name": "Royal Park",
    "type": "bus_stop",
    "osm_node_id": 1224076621,
    "osm_snap_dist_deg": 0.00015497048106536266
  },
  {
    "lon": 73.84878,
    "lat": 18.66518999999999,
    "id": "bus_32999",
    "code": "150598",
    "name": "Boratevasti Nasik Road",
    "type": "bus_stop",
    "osm_node_id": 7981427372,
    "osm_snap_dist_deg": 0.054922083627340475
  },
  {
    "lon": 73.84963999999998,
    "lat": 18.44938999999997,
    "id": "bus_33000",
    "code": "150885",
    "name": "Dattanagar Katraj Road",
    "type": "bus_stop",
    "osm_node_id": 10981870986,
    "osm_snap_dist_deg": 2.6600187953145502e-05
  },
  {
    "lon": 73.86168,
    "lat": 18.48079999999997,
    "id": "bus_33001",
    "code": "154802",
    "name": "Vasantbaug Chowk",
    "type": "bus_stop",
    "osm_node_id": 679066848,
    "osm_snap_dist_deg": 0.0003668106459661863
  },
  {
    "lon": 73.88425999999998,
    "lat": 18.84748999999999,
    "id": "bus_33002",
    "code": "151872",
    "name": "Kadus Phata",
    "type": "bus_stop",
    "osm_node_id": 8006657531,
    "osm_snap_dist_deg": 0.2373620225660463
  },
  {
    "lon": 73.85097000000003,
    "lat": 18.47681000000001,
    "id": "bus_33003",
    "code": "153474",
    "name": "Power House Padmawati",
    "type": "bus_stop",
    "osm_node_id": 1224914820,
    "osm_snap_dist_deg": 6.552106531405263e-05
  },
  {
    "lon": 73.68882999999998,
    "lat": 18.38953000000001,
    "id": "bus_33004",
    "code": "153141",
    "name": "Osade Phata",
    "type": "bus_stop",
    "osm_node_id": 618551629,
    "osm_snap_dist_deg": 0.0903960566881744
  },
  {
    "lon": 73.91703999999999,
    "lat": 18.59181,
    "id": "bus_33006",
    "code": "152099",
    "name": "Kendriya Vidyalay Lohgaon",
    "type": "bus_stop",
    "osm_node_id": 8002103802,
    "osm_snap_dist_deg": 0.00031090102925627805
  },
  {
    "lon": 73.93306999999997,
    "lat": 18.50166999999998,
    "id": "bus_33007",
    "code": "151515",
    "name": "Hadapsargaon",
    "type": "bus_stop",
    "osm_node_id": 1330411927,
    "osm_snap_dist_deg": 3.288236607095114e-05
  },
  {
    "lon": 73.78758,
    "lat": 18.57737,
    "id": "bus_33008",
    "code": "151723",
    "name": "Jagdhmba Hotal",
    "type": "bus_stop",
    "osm_node_id": 6472201112,
    "osm_snap_dist_deg": 0.00040708167485365907
  },
  {
    "lon": 73.80676,
    "lat": 18.74243000000001,
    "id": "bus_33010",
    "code": "151651",
    "name": "Indoorance System Chakan Mhalunge",
    "type": "bus_stop",
    "osm_node_id": 681268744,
    "osm_snap_dist_deg": 0.13220554948300225
  },
  {
    "lon": 73.85097999999998,
    "lat": 18.49744000000003,
    "id": "bus_33012",
    "code": "153244",
    "name": "Parvatigaon",
    "type": "bus_stop",
    "osm_node_id": 1255244713,
    "osm_snap_dist_deg": 3.3501343294008e-05
  },
  {
    "lon": 73.79674999999999,
    "lat": 18.56369999999999,
    "id": "bus_33013",
    "code": "153538",
    "name": "pumpung Station Medi Point",
    "type": "bus_stop",
    "osm_node_id": 2279179523,
    "osm_snap_dist_deg": 0.0001873579728628435
  },
  {
    "lon": 73.84565000000002,
    "lat": 18.64685999999999,
    "id": "bus_33014",
    "code": "153961",
    "name": "Santnagar",
    "type": "bus_stop",
    "osm_node_id": 7981427372,
    "osm_snap_dist_deg": 0.03689554135622625
  },
  {
    "lon": 73.81681,
    "lat": 18.61520000000001,
    "id": "bus_33015",
    "code": "154772",
    "name": "Vallabhnagar ST Stand",
    "type": "bus_stop",
    "osm_node_id": 7702147450,
    "osm_snap_dist_deg": 0.0068301179147980855
  },
  {
    "lon": 73.68103,
    "lat": 18.6263,
    "id": "bus_33016",
    "code": "153883",
    "name": "Sai Washing Center",
    "type": "bus_stop",
    "osm_node_id": 4693596413,
    "osm_snap_dist_deg": 0.08264480598494112
  },
  {
    "lon": 73.88351999999999,
    "lat": 18.45269999999999,
    "id": "bus_33018",
    "code": "151555",
    "name": "Hill Hila",
    "type": "bus_stop",
    "osm_node_id": 8003287060,
    "osm_snap_dist_deg": 0.0003483350829398496
  },
  {
    "lon": 73.81987,
    "lat": 18.45604,
    "id": "bus_33019",
    "code": "150867",
    "name": "Dattamandir Narhe Road",
    "type": "bus_stop",
    "osm_node_id": 10223026192,
    "osm_snap_dist_deg": 0.00035611352122316795
  },
  {
    "lon": 73.8757,
    "lat": 18.44989000000002,
    "id": "bus_33020",
    "code": "151401",
    "name": "Gokulnagar Katraj Kondhwa Road",
    "type": "bus_stop",
    "osm_node_id": 4335077909,
    "osm_snap_dist_deg": 0.00011484676745594392
  },
  {
    "lon": 73.91917000000001,
    "lat": 18.67008999999998,
    "id": "bus_33021",
    "code": "153341",
    "name": "Petrol Pump Dhanora",
    "type": "bus_stop",
    "osm_node_id": 7998593611,
    "osm_snap_dist_deg": 0.05987073777403933
  },
  {
    "lon": 73.70593000000001,
    "lat": 18.53517,
    "id": "bus_33022",
    "code": "154009",
    "name": "Satavvasti",
    "type": "bus_stop",
    "osm_node_id": 10244494414,
    "osm_snap_dist_deg": 0.05738366872010599
  },
  {
    "lon": 73.78535999999998,
    "lat": 18.50703999999997,
    "id": "bus_33023",
    "code": "152807",
    "name": "Mile Dagad Kramank 9",
    "type": "bus_stop",
    "osm_node_id": 4704828667,
    "osm_snap_dist_deg": 0.0009392588248537103
  },
  {
    "lon": 73.90238,
    "lat": 18.67647999999999,
    "id": "bus_33024",
    "code": "153965",
    "name": "Santoshi Mata Mandir Alandi",
    "type": "bus_stop",
    "osm_node_id": 6782156304,
    "osm_snap_dist_deg": 0.06631850824052528
  },
  {
    "lon": 73.81654999999999,
    "lat": 18.53986999999999,
    "id": "bus_33025",
    "code": "153039",
    "name": "NCL Colony",
    "type": "bus_stop",
    "osm_node_id": 10801425072,
    "osm_snap_dist_deg": 0.0009480080221307314
  },
  {
    "lon": 73.73095999999998,
    "lat": 18.60304,
    "id": "bus_33026",
    "code": "151493",
    "name": "Gurukrupa Hospital",
    "type": "bus_stop",
    "osm_node_id": 4693596401,
    "osm_snap_dist_deg": 0.030924477361001356
  },
  {
    "lon": 73.92866,
    "lat": 18.53419000000001,
    "id": "bus_33027",
    "code": "152930",
    "name": "Mundhwa Shala",
    "type": "bus_stop",
    "osm_node_id": 7990720127,
    "osm_snap_dist_deg": 7.445871338476552e-05
  },
  {
    "lon": 73.89065999999998,
    "lat": 18.45419,
    "id": "bus_33028",
    "code": "152220",
    "name": "Kondhwa Bk",
    "type": "bus_stop",
    "osm_node_id": 4345424242,
    "osm_snap_dist_deg": 9.862783583499376e-05
  },
  {
    "lon": 73.85479,
    "lat": 18.32365,
    "id": "bus_33029",
    "code": "153531",
    "name": "Pulachiwadi",
    "type": "bus_stop",
    "osm_node_id": 8017799590,
    "osm_snap_dist_deg": 0.10684162585045998
  },
  {
    "lon": 73.70577,
    "lat": 18.53504,
    "id": "bus_33030",
    "code": "154008",
    "name": "Satavvasti",
    "type": "bus_stop",
    "osm_node_id": 10244494414,
    "osm_snap_dist_deg": 0.05756069379168246
  },
  {
    "lon": 73.86132,
    "lat": 18.52200999999999,
    "id": "bus_33032",
    "code": "151955",
    "name": "Kamala Nehru Hospital",
    "type": "bus_stop",
    "osm_node_id": 11400826178,
    "osm_snap_dist_deg": 0.0002720634668496025
  },
  {
    "lon": 73.83100000000003,
    "lat": 18.63160999999998,
    "id": "bus_33033",
    "code": "153465",
    "name": "Power House Indrayninagar",
    "type": "bus_stop",
    "osm_node_id": 8005878839,
    "osm_snap_dist_deg": 0.02169126267899999
  },
  {
    "lon": 73.77098000000002,
    "lat": 18.65587999999998,
    "id": "bus_33034",
    "code": "154315",
    "name": "Sindhunagar",
    "type": "bus_stop",
    "osm_node_id": 4694076214,
    "osm_snap_dist_deg": 0.04565300486898787
  },
  {
    "lon": 73.80986000000001,
    "lat": 18.65113000000001,
    "id": "bus_33035",
    "code": "152288",
    "name": "Ksb Chowk",
    "type": "bus_stop",
    "osm_node_id": 681268744,
    "osm_snap_dist_deg": 0.04153132208467486
  },
  {
    "lon": 73.82031999999998,
    "lat": 18.33112,
    "id": "bus_33038",
    "code": "152341",
    "name": "Kusgaon",
    "type": "bus_stop",
    "osm_node_id": 5424215893,
    "osm_snap_dist_deg": 0.09946261622710319
  },
  {
    "lon": 73.89531999999998,
    "lat": 18.49847999999999,
    "id": "bus_33039",
    "code": "154786",
    "name": "Vanwadi Corner",
    "type": "bus_stop",
    "osm_node_id": 10225125854,
    "osm_snap_dist_deg": 0.00020779076015665763
  },
  {
    "lon": 73.91367000000001,
    "lat": 18.46207,
    "id": "bus_33040",
    "code": "151874",
    "name": "Kadvasti Undri",
    "type": "bus_stop",
    "osm_node_id": 4346928796,
    "osm_snap_dist_deg": 0.0002755708257478716
  },
  {
    "lon": 73.83168999999997,
    "lat": 18.52609999999999,
    "id": "bus_33041",
    "code": "151528",
    "name": "Hanumannagar",
    "type": "bus_stop",
    "osm_node_id": 2203119268,
    "osm_snap_dist_deg": 0.0003197424276224876
  },
  {
    "lon": 73.65812,
    "lat": 18.72916,
    "id": "bus_33043",
    "code": "154497",
    "name": "Swarajnagari",
    "type": "bus_stop",
    "osm_node_id": 4693596413,
    "osm_snap_dist_deg": 0.15845365833672082
  },
  {
    "lon": 73.78669999999998,
    "lat": 18.66420000000001,
    "id": "bus_33045",
    "code": "155016",
    "name": "Yamunanagar Corner",
    "type": "bus_stop",
    "osm_node_id": 11140547907,
    "osm_snap_dist_deg": 0.053934435827225936
  },
  {
    "lon": 73.81922,
    "lat": 18.68243000000001,
    "id": "bus_33047",
    "code": "152853",
    "name": "Moi Phata",
    "type": "bus_stop",
    "osm_node_id": 2411887125,
    "osm_snap_dist_deg": 0.0722937673538412
  },
  {
    "lon": 73.77271000000003,
    "lat": 18.71437000000002,
    "id": "bus_33048",
    "code": "154548",
    "name": "Talyacha Matha",
    "type": "bus_stop",
    "osm_node_id": 4694076265,
    "osm_snap_dist_deg": 0.10406954531549481
  },
  {
    "lon": 73.84622000000003,
    "lat": 18.61572000000003,
    "id": "bus_33049",
    "code": "154175",
    "name": "Shitalbaug",
    "type": "bus_stop",
    "osm_node_id": 2583604455,
    "osm_snap_dist_deg": 0.006968551738349043
  },
  {
    "lon": 74.02314,
    "lat": 18.36472000000002,
    "id": "bus_33050",
    "code": "151760",
    "name": "Jakat Naka Saswad",
    "type": "bus_stop",
    "osm_node_id": 12658236853,
    "osm_snap_dist_deg": 0.10140484706402282
  },
  {
    "lon": 73.75997999999998,
    "lat": 18.70211999999999,
    "id": "bus_33051",
    "code": "155055",
    "name": "Zendemala",
    "type": "bus_stop",
    "osm_node_id": 2598286201,
    "osm_snap_dist_deg": 0.09204284937841974
  },
  {
    "lon": 74.11226,
    "lat": 18.48786000000002,
    "id": "bus_33053",
    "code": "151638",
    "name": "Inamdarvasti Solapur Road",
    "type": "bus_stop",
    "osm_node_id": 3736971287,
    "osm_snap_dist_deg": 0.16076411984585479
  },
  {
    "lon": 73.71186000000002,
    "lat": 18.57668000000002,
    "id": "bus_33054",
    "code": "152131",
    "name": "Khadi Machine Hinjawadi Road",
    "type": "bus_stop",
    "osm_node_id": 6270573808,
    "osm_snap_dist_deg": 0.05047598356494403
  },
  {
    "lon": 73.78494999999998,
    "lat": 18.62855,
    "id": "bus_33055",
    "code": "151919",
    "name": "Kalimata Mandir",
    "type": "bus_stop",
    "osm_node_id": 8007399496,
    "osm_snap_dist_deg": 0.018399699750807536
  },
  {
    "lon": 73.81936999999999,
    "lat": 18.46716000000001,
    "id": "bus_33056",
    "code": "154727",
    "name": "Vadgaon BK Phata",
    "type": "bus_stop",
    "osm_node_id": 2561173266,
    "osm_snap_dist_deg": 0.0003920312742802746
  },
  {
    "lon": 73.60775000000002,
    "lat": 18.52421,
    "id": "bus_33057",
    "code": "154096",
    "name": "Shasakiya Vishramgruha Paudgaon",
    "type": "bus_stop",
    "osm_node_id": 6270609634,
    "osm_snap_dist_deg": 0.1546163105498267
  },
  {
    "lon": 73.76855,
    "lat": 18.39886999999999,
    "id": "bus_33058",
    "code": "152626",
    "name": "Mandharevasti",
    "type": "bus_stop",
    "osm_node_id": 618551629,
    "osm_snap_dist_deg": 0.0321912071965387
  },
  {
    "lon": 73.81933,
    "lat": 18.62958000000001,
    "id": "bus_33059",
    "code": "153059",
    "name": "Nehrunagar",
    "type": "bus_stop",
    "osm_node_id": 10244063099,
    "osm_snap_dist_deg": 0.019720289898995852
  },
  {
    "lon": 73.97735999999999,
    "lat": 18.43626,
    "id": "bus_33062",
    "code": "154751",
    "name": "Vadkinala",
    "type": "bus_stop",
    "osm_node_id": 8021717699,
    "osm_snap_dist_deg": 0.027101873947189044
  },
  {
    "lon": 73.77693,
    "lat": 18.46586999999999,
    "id": "bus_33063",
    "code": "151692",
    "name": "Ingalevasti",
    "type": "bus_stop",
    "osm_node_id": 10244235414,
    "osm_snap_dist_deg": 0.00015015964837145296
  },
  {
    "lon": 73.69503000000002,
    "lat": 18.51375000000001,
    "id": "bus_33064",
    "code": "150954",
    "name": "Detwayalar Company",
    "type": "bus_stop",
    "osm_node_id": 7127988572,
    "osm_snap_dist_deg": 0.06715276688638801
  },
  {
    "lon": 73.81065999999998,
    "lat": 18.44884999999998,
    "id": "bus_33066",
    "code": "151221",
    "name": "Ganeshnagar Dhayari",
    "type": "bus_stop",
    "osm_node_id": 8003811481,
    "osm_snap_dist_deg": 0.00013306483380641263
  },
  {
    "lon": 73.83073000000003,
    "lat": 18.49517000000002,
    "id": "bus_33067",
    "code": "153838",
    "name": "Saibaba Mandir Karvenagar",
    "type": "bus_stop",
    "osm_node_id": 1224077007,
    "osm_snap_dist_deg": 0.0006076004279310572
  },
  {
    "lon": 73.79615000000003,
    "lat": 18.66716,
    "id": "bus_33068",
    "code": "153925",
    "name": "Sane Chowk",
    "type": "bus_stop",
    "osm_node_id": 2659601699,
    "osm_snap_dist_deg": 0.05702752269737702
  },
  {
    "lon": 73.79473000000003,
    "lat": 18.50805000000001,
    "id": "bus_33070",
    "code": "152252",
    "name": "Kothrud Depot",
    "type": "bus_stop",
    "osm_node_id": 2092676703,
    "osm_snap_dist_deg": 0.00013130198016859262
  },
  {
    "lon": 73.87335999999999,
    "lat": 18.59734999999999,
    "id": "bus_33071",
    "code": "151211",
    "name": "Ganeshnagar Alandi Road",
    "type": "bus_stop",
    "osm_node_id": 2629777777,
    "osm_snap_dist_deg": 6.140268722669864e-05
  },
  {
    "lon": 73.88048000000002,
    "lat": 18.64596000000002,
    "id": "bus_33072",
    "code": "153112",
    "name": "Nirma Company",
    "type": "bus_stop",
    "osm_node_id": 10244389978,
    "osm_snap_dist_deg": 0.035901944611699696
  },
  {
    "lon": 73.79587,
    "lat": 18.55519000000003,
    "id": "bus_33075",
    "code": "150131",
    "name": "Ambedkarnagar Baner",
    "type": "bus_stop",
    "osm_node_id": 12839168665,
    "osm_snap_dist_deg": 0.00016973414508212044
  },
  {
    "lon": 73.80203,
    "lat": 18.53792999999999,
    "id": "bus_33077",
    "code": "150231",
    "name": "ARDL Gate",
    "type": "bus_stop",
    "osm_node_id": 4704949756,
    "osm_snap_dist_deg": 0.0002447000817383763
  },
  {
    "lon": 73.90829,
    "lat": 18.52978999999998,
    "id": "bus_33078",
    "code": "150237",
    "name": "Army College",
    "type": "bus_stop",
    "osm_node_id": 1841009027,
    "osm_snap_dist_deg": 0.00012784068208597803
  },
  {
    "lon": 73.77373000000001,
    "lat": 18.54822000000003,
    "id": "bus_33080",
    "code": "154998",
    "name": "West Wing Society",
    "type": "bus_stop",
    "osm_node_id": 11171083118,
    "osm_snap_dist_deg": 8.763036000081148e-05
  },
  {
    "lon": 73.76101999999999,
    "lat": 18.7115,
    "id": "bus_33081",
    "code": "152575",
    "name": "Malwadi Dehu",
    "type": "bus_stop",
    "osm_node_id": 2598286201,
    "osm_snap_dist_deg": 0.10135839137289232
  },
  {
    "lon": 73.95253,
    "lat": 18.48669000000002,
    "id": "bus_33084",
    "code": "151250",
    "name": "Ganganagar Saswad Road",
    "type": "bus_stop",
    "osm_node_id": 11143189784,
    "osm_snap_dist_deg": 0.0014914179326948754
  },
  {
    "lon": 73.85318999999998,
    "lat": 18.46255999999997,
    "id": "bus_33085",
    "code": "153667",
    "name": "Rajmudra Society",
    "type": "bus_stop",
    "osm_node_id": 1597821674,
    "osm_snap_dist_deg": 0.0004952365596008727
  },
  {
    "lon": 73.76436999999999,
    "lat": 18.46737999999998,
    "id": "bus_33086",
    "code": "153051",
    "name": "NDA Gol Market",
    "type": "bus_stop",
    "osm_node_id": 245645442,
    "osm_snap_dist_deg": 4.795518742175722e-05
  },
  {
    "lon": 73.80817000000003,
    "lat": 18.50774000000002,
    "id": "bus_33087",
    "code": "154782",
    "name": "Vanaj Corner",
    "type": "bus_stop",
    "osm_node_id": 2092676687,
    "osm_snap_dist_deg": 0.0002336675415814196
  },
  {
    "lon": 73.90309999999998,
    "lat": 18.57797,
    "id": "bus_33089",
    "code": "150632",
    "name": "Burma Shell",
    "type": "bus_stop",
    "osm_node_id": 2514907793,
    "osm_snap_dist_deg": 0.0005074234720761317
  },
  {
    "lon": 73.95974000000002,
    "lat": 18.52522,
    "id": "bus_33090",
    "code": "151355",
    "name": "Ghulevasti Manjari",
    "type": "bus_stop",
    "osm_node_id": 7986581905,
    "osm_snap_dist_deg": 0.008222421532633313
  },
  {
    "lon": 73.67594999999999,
    "lat": 18.62902,
    "id": "bus_33091",
    "code": "152021",
    "name": "Kasarsai Karkhana Phata",
    "type": "bus_stop",
    "osm_node_id": 4693596413,
    "osm_snap_dist_deg": 0.088187555971872
  },
  {
    "lon": 73.86238000000002,
    "lat": 18.50803999999998,
    "id": "bus_33092",
    "code": "152855",
    "name": "Mominpura",
    "type": "bus_stop",
    "osm_node_id": 10227055858,
    "osm_snap_dist_deg": 5.7368981181976654e-05
  },
  {
    "lon": 73.81700000000002,
    "lat": 18.46626,
    "id": "bus_33093",
    "code": "154724",
    "name": "Vadgaon BK Highway",
    "type": "bus_stop",
    "osm_node_id": 2096194171,
    "osm_snap_dist_deg": 0.00015152161559828388
  },
  {
    "lon": 73.80792000000001,
    "lat": 18.66176,
    "id": "bus_16709",
    "code": "118487",
    "name": "Bahirwade Kridangan",
    "type": "bus_stop",
    "osm_node_id": 681268744,
    "osm_snap_dist_deg": 0.051769815801297345
  },
  {
    "lon": 73.80149,
    "lat": 18.45708999999999,
    "id": "bus_33094",
    "code": "152978",
    "name": "Nanded City",
    "type": "bus_stop",
    "osm_node_id": 5265155825,
    "osm_snap_dist_deg": 0.0001388919724033849
  },
  {
    "lon": 73.77274,
    "lat": 18.54729000000002,
    "id": "bus_33095",
    "code": "154473",
    "name": "Suskhind Phata Sus Road",
    "type": "bus_stop",
    "osm_node_id": 10243919483,
    "osm_snap_dist_deg": 0.00032054307042746275
  },
  {
    "lon": 73.98888000000001,
    "lat": 18.42111999999999,
    "id": "bus_33097",
    "code": "152796",
    "name": "Mile Dagad Kramank 21 Diveghat",
    "type": "bus_stop",
    "osm_node_id": 8021717699,
    "osm_snap_dist_deg": 0.041143466449130646
  },
  {
    "lon": 73.85663999999998,
    "lat": 18.55427000000001,
    "id": "bus_33099",
    "code": "154460",
    "name": "Surgeon Quarters",
    "type": "bus_stop",
    "osm_node_id": 10241877462,
    "osm_snap_dist_deg": 0.0006823665656931863
  },
  {
    "lon": 73.86994,
    "lat": 18.52380000000001,
    "id": "bus_33100",
    "code": "151809",
    "name": "Jilha Parishad",
    "type": "bus_stop",
    "osm_node_id": 247740216,
    "osm_snap_dist_deg": 4.6951251321777034e-05
  },
  {
    "lon": 74.09902,
    "lat": 18.48796999999997,
    "id": "bus_33101",
    "code": "154371",
    "name": "Sortapwadi",
    "type": "bus_stop",
    "osm_node_id": 3736971287,
    "osm_snap_dist_deg": 0.14752884854091697
  },
  {
    "lon": 73.85378,
    "lat": 18.51222999999998,
    "id": "bus_33103",
    "code": "154066",
    "name": "Shanipar",
    "type": "bus_stop",
    "osm_node_id": 673358719,
    "osm_snap_dist_deg": 0.0002766738513291369
  },
  {
    "lon": 74.04708,
    "lat": 18.56225999999999,
    "id": "bus_33104",
    "code": "152345",
    "name": "Kutalevasti",
    "type": "bus_stop",
    "osm_node_id": 4701201723,
    "osm_snap_dist_deg": 0.09565033896128196
  },
  {
    "lon": 73.75745,
    "lat": 18.34737000000001,
    "id": "bus_33105",
    "code": "153340",
    "name": "Peth",
    "type": "bus_stop",
    "osm_node_id": 618551629,
    "osm_snap_dist_deg": 0.08449634075371701
  },
  {
    "lon": 73.93144999999998,
    "lat": 18.48257000000002,
    "id": "bus_33106",
    "code": "154297",
    "name": "Siddhivinayak Vastu",
    "type": "bus_stop",
    "osm_node_id": 8002741348,
    "osm_snap_dist_deg": 3.908887308612554e-05
  },
  {
    "lon": 73.85063,
    "lat": 18.64819999999999,
    "id": "bus_33108",
    "code": "151183",
    "name": "Gandharvanagari",
    "type": "bus_stop",
    "osm_node_id": 7981427372,
    "osm_snap_dist_deg": 0.037901911402580035
  },
  {
    "lon": 73.80232000000002,
    "lat": 18.53800999999997,
    "id": "bus_33109",
    "code": "150235",
    "name": "ARDL Office",
    "type": "bus_stop",
    "osm_node_id": 7985333002,
    "osm_snap_dist_deg": 0.00043946533427996313
  },
  {
    "lon": 74.04112000000002,
    "lat": 18.78273999999998,
    "id": "bus_33110",
    "code": "152106",
    "name": "Kendurgaon",
    "type": "bus_stop",
    "osm_node_id": 7984450122,
    "osm_snap_dist_deg": 0.19735042704885994
  },
  {
    "lon": 73.80331999999999,
    "lat": 18.51023000000001,
    "id": "bus_33111",
    "code": "154132",
    "name": "Shikshaknagar",
    "type": "bus_stop",
    "osm_node_id": 1110084745,
    "osm_snap_dist_deg": 2.5854400031004893e-05
  },
  {
    "lon": 73.81603000000001,
    "lat": 18.57861,
    "id": "bus_33112",
    "code": "153846",
    "name": "Sai Chowk Navi sangvi",
    "type": "bus_stop",
    "osm_node_id": 8013087304,
    "osm_snap_dist_deg": 0.00011137701738017124
  },
  {
    "lon": 73.93292999999998,
    "lat": 18.49575000000001,
    "id": "bus_33113",
    "code": "151904",
    "name": "Kale Colony",
    "type": "bus_stop",
    "osm_node_id": 9699644146,
    "osm_snap_dist_deg": 0.00012057968319181804
  },
  {
    "lon": 73.76303999999998,
    "lat": 18.65052000000002,
    "id": "bus_33114",
    "code": "153322",
    "name": "PCP College Chowk",
    "type": "bus_stop",
    "osm_node_id": 2598286201,
    "osm_snap_dist_deg": 0.04035222657675659
  },
  {
    "lon": 73.69447000000001,
    "lat": 18.78926999999999,
    "id": "bus_33115",
    "code": "151316",
    "name": "General Motors",
    "type": "bus_stop",
    "osm_node_id": 7983907569,
    "osm_snap_dist_deg": 0.1919665457511191
  },
  {
    "lon": 73.9317,
    "lat": 18.47360999999999,
    "id": "bus_33116",
    "code": "151361",
    "name": "Girls Hostel",
    "type": "bus_stop",
    "osm_node_id": 4701549692,
    "osm_snap_dist_deg": 2.285278977530201e-05
  },
  {
    "lon": 73.78334999999997,
    "lat": 18.58246,
    "id": "bus_33117",
    "code": "152983",
    "name": "Nandgude Shala",
    "type": "bus_stop",
    "osm_node_id": 5971898871,
    "osm_snap_dist_deg": 9.056621889350778e-05
  },
  {
    "lon": 73.82998,
    "lat": 18.58197999999998,
    "id": "bus_33118",
    "code": "154174",
    "name": "Shitaladevi Chowk Pimplegurav",
    "type": "bus_stop",
    "osm_node_id": 2517121825,
    "osm_snap_dist_deg": 0.0001773341478902359
  },
  {
    "lon": 73.93721999999998,
    "lat": 18.53201000000001,
    "id": "bus_33119",
    "code": "152111",
    "name": "Keshavnagar Chowk",
    "type": "bus_stop",
    "osm_node_id": 250131558,
    "osm_snap_dist_deg": 0.00012631963423573105
  },
  {
    "lon": 73.94164999999998,
    "lat": 18.50801000000001,
    "id": "bus_33120",
    "code": "154908",
    "name": "Vitthal Mandir Hadapsar",
    "type": "bus_stop",
    "osm_node_id": 4701262179,
    "osm_snap_dist_deg": 3.478002299464428e-05
  },
  {
    "lon": 73.80707000000002,
    "lat": 18.66424,
    "id": "bus_33121",
    "code": "153081",
    "name": "Newale Chowk",
    "type": "bus_stop",
    "osm_node_id": 681268744,
    "osm_snap_dist_deg": 0.054153373026065696
  },
  {
    "lon": 73.84145999999998,
    "lat": 18.51760000000001,
    "id": "bus_33123",
    "code": "151418",
    "name": "Goodluck Chowk",
    "type": "bus_stop",
    "osm_node_id": 11461779605,
    "osm_snap_dist_deg": 1.6011246056233348e-05
  },
  {
    "lon": 73.79280000000001,
    "lat": 18.34714,
    "id": "bus_33124",
    "code": "151813",
    "name": "Jilha Parishad Shala",
    "type": "bus_stop",
    "osm_node_id": 10248191495,
    "osm_snap_dist_deg": 0.08343708983905122
  },
  {
    "lon": 73.67826999999998,
    "lat": 18.71699000000001,
    "id": "bus_33125",
    "code": "154857",
    "name": "Vipraj Company",
    "type": "bus_stop",
    "osm_node_id": 4693596413,
    "osm_snap_dist_deg": 0.13625034308321746
  },
  {
    "lon": 73.80914999999999,
    "lat": 18.55592,
    "id": "bus_33126",
    "code": "150186",
    "name": "Anand Park",
    "type": "bus_stop",
    "osm_node_id": 10536229379,
    "osm_snap_dist_deg": 0.00018064063773226823
  },
  {
    "lon": 74.11239,
    "lat": 18.50755,
    "id": "bus_33128",
    "code": "150974",
    "name": "Dhangarvasti",
    "type": "bus_stop",
    "osm_node_id": 10239844587,
    "osm_snap_dist_deg": 0.16100010772493184
  },
  {
    "lon": 73.83076,
    "lat": 18.52910000000001,
    "id": "bus_33129",
    "code": "154827",
    "name": "Vetalbaba Chowk",
    "type": "bus_stop",
    "osm_node_id": 2203119324,
    "osm_snap_dist_deg": 0.0001556884388849468
  },
  {
    "lon": 73.82777,
    "lat": 18.52418999999998,
    "id": "bus_33130",
    "code": "153290",
    "name": "Patrakarnagar",
    "type": "bus_stop",
    "osm_node_id": 10241581574,
    "osm_snap_dist_deg": 0.00042812050874774287
  },
  {
    "lon": 73.73079000000003,
    "lat": 18.73804999999999,
    "id": "bus_33133",
    "code": "154643",
    "name": "Tolani Institute",
    "type": "bus_stop",
    "osm_node_id": 7983907569,
    "osm_snap_dist_deg": 0.1320839462600067
  },
  {
    "lon": 73.85662,
    "lat": 18.46391999999999,
    "id": "bus_33137",
    "code": "150900",
    "name": "Daulatnagar Dhankawadi Road",
    "type": "bus_stop",
    "osm_node_id": 711429921,
    "osm_snap_dist_deg": 0.00017840739895236344
  },
  {
    "lon": 73.88575999999999,
    "lat": 18.5343,
    "id": "bus_33138",
    "code": "153958",
    "name": "Sant Gadge Maharaj Shala",
    "type": "bus_stop",
    "osm_node_id": 10230117024,
    "osm_snap_dist_deg": 7.4062271097483e-05
  },
  {
    "lon": 73.82780000000001,
    "lat": 18.49320000000001,
    "id": "bus_33139",
    "code": "154689",
    "name": "United Western Sabhagrugha",
    "type": "bus_stop",
    "osm_node_id": 3575740755,
    "osm_snap_dist_deg": 0.00031922637736233646
  },
  {
    "lon": 73.79626,
    "lat": 18.53749999999998,
    "id": "bus_33140",
    "code": "152897",
    "name": "MSB Pumping Station",
    "type": "bus_stop",
    "osm_node_id": 11808875919,
    "osm_snap_dist_deg": 0.00010664108025190549
  },
  {
    "lon": 73.80622999999999,
    "lat": 18.57354000000001,
    "id": "bus_33141",
    "code": "153948",
    "name": "Sangvi Phata",
    "type": "bus_stop",
    "osm_node_id": 4711650438,
    "osm_snap_dist_deg": 0.0002528684243005329
  },
  {
    "lon": 73.85637,
    "lat": 18.51513,
    "id": "bus_33145",
    "code": "152625",
    "name": "Mandai Stand",
    "type": "bus_stop",
    "osm_node_id": 11459329560,
    "osm_snap_dist_deg": 0.00020606659117570578
  },
  {
    "lon": 73.61070000000002,
    "lat": 18.59117000000001,
    "id": "bus_33146",
    "code": "151782",
    "name": "Jawalgaon",
    "type": "bus_stop",
    "osm_node_id": 11641140354,
    "osm_snap_dist_deg": 0.15116212985203573
  },
  {
    "lon": 74.11153999999998,
    "lat": 18.61906,
    "id": "bus_33147",
    "code": "154150",
    "name": "Shindevasti Burkegaon",
    "type": "bus_stop",
    "osm_node_id": 7987031207,
    "osm_snap_dist_deg": 0.16108768350760008
  },
  {
    "lon": 73.67856999999998,
    "lat": 18.62782999999997,
    "id": "bus_33149",
    "code": "152017",
    "name": "Kasarsai",
    "type": "bus_stop",
    "osm_node_id": 4693596413,
    "osm_snap_dist_deg": 0.08537081322262337
  },
  {
    "lon": 73.82443999999998,
    "lat": 18.45346,
    "id": "bus_33150",
    "code": "152593",
    "name": "Manajinagar",
    "type": "bus_stop",
    "osm_node_id": 4333660900,
    "osm_snap_dist_deg": 6.982041247757237e-05
  },
  {
    "lon": 73.82024000000003,
    "lat": 18.49205000000002,
    "id": "bus_33151",
    "code": "154278",
    "name": "Shreeman Society",
    "type": "bus_stop",
    "osm_node_id": 1224049345,
    "osm_snap_dist_deg": 0.00013928804686803988
  },
  {
    "lon": 73.66213,
    "lat": 18.56781000000001,
    "id": "bus_33152",
    "code": "153842",
    "name": "Saibaba Mandir Materewadi",
    "type": "bus_stop",
    "osm_node_id": 10243730961,
    "osm_snap_dist_deg": 0.09990276790805239
  },
  {
    "lon": 73.85411,
    "lat": 18.52381999999999,
    "id": "bus_386",
    "code": "30018",
    "name": "Ma Na Pa",
    "type": "bus_stop",
    "osm_node_id": 11462234457,
    "osm_snap_dist_deg": 0.00045989552073202053
  },
  {
    "lon": 73.87263000000003,
    "lat": 18.63187999999998,
    "id": "bus_33155",
    "code": "151171",
    "name": "Gajanan Maharaj Mandir Alandi Road",
    "type": "bus_stop",
    "osm_node_id": 8006657531,
    "osm_snap_dist_deg": 0.021625585001314014
  },
  {
    "lon": 73.81808000000001,
    "lat": 18.56282999999999,
    "id": "bus_33158",
    "code": "154377",
    "name": "Spicer College",
    "type": "bus_stop",
    "osm_node_id": 11168767987,
    "osm_snap_dist_deg": 0.00039546066807091254
  },
  {
    "lon": 73.90710000000001,
    "lat": 18.51117999999999,
    "id": "bus_33159",
    "code": "154681",
    "name": "Udaybaug",
    "type": "bus_stop",
    "osm_node_id": 7210991594,
    "osm_snap_dist_deg": 7.5006266417156e-05
  },
  {
    "lon": 74.01468000000001,
    "lat": 18.65456,
    "id": "bus_33161",
    "code": "152583",
    "name": "Malwadi Markal Road",
    "type": "bus_stop",
    "osm_node_id": 7986862756,
    "osm_snap_dist_deg": 0.08073682338469688
  },
  {
    "lon": 74.04198999999998,
    "lat": 18.68074999999998,
    "id": "bus_33162",
    "code": "151940",
    "name": "Kalukh Shetmala",
    "type": "bus_stop",
    "osm_node_id": 7986862756,
    "osm_snap_dist_deg": 0.1183182062923707
  },
  {
    "lon": 74.12448000000002,
    "lat": 18.49525999999999,
    "id": "bus_33163",
    "code": "153625",
    "name": "Railway Gate Uralikanchan",
    "type": "bus_stop",
    "osm_node_id": 10239768031,
    "osm_snap_dist_deg": 0.1729944704980747
  },
  {
    "lon": 73.89436,
    "lat": 18.49261999999998,
    "id": "bus_33164",
    "code": "154137",
    "name": "Shinde Chhatri",
    "type": "bus_stop",
    "osm_node_id": 10005982443,
    "osm_snap_dist_deg": 0.00021557794415758244
  },
  {
    "lon": 73.88916000000002,
    "lat": 18.47281000000002,
    "id": "bus_33165",
    "code": "152232",
    "name": "Kondhwa Kh",
    "type": "bus_stop",
    "osm_node_id": 6263042334,
    "osm_snap_dist_deg": 0.00019147981619305654
  },
  {
    "lon": 73.89526999999997,
    "lat": 18.56602000000002,
    "id": "bus_33166",
    "code": "151295",
    "name": "Gaurdroom",
    "type": "bus_stop",
    "osm_node_id": 1920125946,
    "osm_snap_dist_deg": 0.0010281809179211003
  },
  {
    "lon": 73.70282999999999,
    "lat": 18.39321999999997,
    "id": "bus_33168",
    "code": "152568",
    "name": "Malkhed",
    "type": "bus_stop",
    "osm_node_id": 618551629,
    "osm_snap_dist_deg": 0.07633076278128618
  },
  {
    "lon": 73.74457999999997,
    "lat": 18.50128000000001,
    "id": "bus_33170",
    "code": "150768",
    "name": "Chutkevasti",
    "type": "bus_stop",
    "osm_node_id": 4703673050,
    "osm_snap_dist_deg": 0.0176047191857964
  },
  {
    "lon": 73.75788000000001,
    "lat": 18.41796999999999,
    "id": "bus_33171",
    "code": "151428",
    "name": "Gorhe Bk Shala",
    "type": "bus_stop",
    "osm_node_id": 618551629,
    "osm_snap_dist_deg": 0.01725282750072819
  },
  {
    "lon": 73.83877,
    "lat": 18.49640999999998,
    "id": "bus_33172",
    "code": "151196",
    "name": "Ganeshmala",
    "type": "bus_stop",
    "osm_node_id": 10239740540,
    "osm_snap_dist_deg": 0.0002400841519320098
  },
  {
    "lon": 73.82387000000001,
    "lat": 18.63052999999999,
    "id": "bus_33173",
    "code": "151854",
    "name": "Jyoti English School",
    "type": "bus_stop",
    "osm_node_id": 2411887125,
    "osm_snap_dist_deg": 0.02027629473571348
  },
  {
    "lon": 73.78102,
    "lat": 18.60796000000001,
    "id": "bus_33174",
    "code": "154283",
    "name": "Shreenagar",
    "type": "bus_stop",
    "osm_node_id": 4694047230,
    "osm_snap_dist_deg": 0.00011207756243524419
  },
  {
    "lon": 73.89092999999998,
    "lat": 18.47785000000001,
    "id": "bus_33175",
    "code": "152258",
    "name": "Kousarbaug",
    "type": "bus_stop",
    "osm_node_id": 674712788,
    "osm_snap_dist_deg": 0.00030640760432810863
  },
  {
    "lon": 73.78552000000002,
    "lat": 18.61493000000001,
    "id": "bus_33176",
    "code": "152826",
    "name": "MM School",
    "type": "bus_stop",
    "osm_node_id": 4694047210,
    "osm_snap_dist_deg": 0.00500929547243365
  },
  {
    "lon": 73.87743000000002,
    "lat": 18.46120999999999,
    "id": "bus_33177",
    "code": "152350",
    "name": "Ladies Hostel",
    "type": "bus_stop",
    "osm_node_id": 1346630210,
    "osm_snap_dist_deg": 0.00024412164997702945
  },
  {
    "lon": 73.90663,
    "lat": 18.50639999999998,
    "id": "bus_33178",
    "code": "151933",
    "name": "Kalubai Mandir Ramtekdi",
    "type": "bus_stop",
    "osm_node_id": 2237582096,
    "osm_snap_dist_deg": 0.0002875914463134495
  },
  {
    "lon": 73.86219999999999,
    "lat": 18.52256000000001,
    "id": "bus_33179",
    "code": "151956",
    "name": "Kamala Nehru Hospital",
    "type": "bus_stop",
    "osm_node_id": 10225014302,
    "osm_snap_dist_deg": 0.00010740353810214375
  },
  {
    "lon": 74.04667999999998,
    "lat": 18.71582,
    "id": "bus_33180",
    "code": "154762",
    "name": "Vajewadi Chaufula",
    "type": "bus_stop",
    "osm_node_id": 7986862756,
    "osm_snap_dist_deg": 0.14582189941927937
  },
  {
    "lon": 73.81838,
    "lat": 18.49261999999998,
    "id": "bus_33183",
    "code": "153833",
    "name": "Sahwas Corner",
    "type": "bus_stop",
    "osm_node_id": 1705497166,
    "osm_snap_dist_deg": 6.042060908526375e-05
  },
  {
    "lon": 73.80752000000001,
    "lat": 18.62850000000002,
    "id": "bus_33184",
    "code": "152557",
    "name": "Mahindra Company",
    "type": "bus_stop",
    "osm_node_id": 681268744,
    "osm_snap_dist_deg": 0.018945580595507536
  },
  {
    "lon": 73.93281,
    "lat": 18.53252000000001,
    "id": "bus_33185",
    "code": "152924",
    "name": "Mundhwa Gaon",
    "type": "bus_stop",
    "osm_node_id": 10239840568,
    "osm_snap_dist_deg": 0.0002810247853880905
  },
  {
    "lon": 73.64394,
    "lat": 18.51763000000001,
    "id": "bus_33186",
    "code": "153954",
    "name": "Sant Company",
    "type": "bus_stop",
    "osm_node_id": 7127988572,
    "osm_snap_dist_deg": 0.11835694211367426
  },
  {
    "lon": 73.88684999999998,
    "lat": 18.52324,
    "id": "bus_33187",
    "code": "154411",
    "name": "Station Family Camp",
    "type": "bus_stop",
    "osm_node_id": 10213721759,
    "osm_snap_dist_deg": 0.0002460735255792
  },
  {
    "lon": 73.79273999999997,
    "lat": 18.61879,
    "id": "bus_33188",
    "code": "151686",
    "name": "Ingale Hospital",
    "type": "bus_stop",
    "osm_node_id": 11357764497,
    "osm_snap_dist_deg": 0.008718805525984615
  },
  {
    "lon": 73.87797000000002,
    "lat": 18.45825999999999,
    "id": "bus_33189",
    "code": "153897",
    "name": "Salve Garden",
    "type": "bus_stop",
    "osm_node_id": 7171894939,
    "osm_snap_dist_deg": 4.7754476252964824e-05
  },
  {
    "lon": 73.81522999999997,
    "lat": 18.48906999999998,
    "id": "bus_33190",
    "code": "152006",
    "name": "Karvenagar Corner",
    "type": "bus_stop",
    "osm_node_id": 6263254702,
    "osm_snap_dist_deg": 0.00012411970025681898
  },
  {
    "lon": 73.70906999999998,
    "lat": 18.41423000000002,
    "id": "bus_33191",
    "code": "152631",
    "name": "Mandvi Kh",
    "type": "bus_stop",
    "osm_node_id": 618551629,
    "osm_snap_dist_deg": 0.06236608447522655
  },
  {
    "lon": 73.93369,
    "lat": 18.53283999999998,
    "id": "bus_33192",
    "code": "152921",
    "name": "Mundhwagaon",
    "type": "bus_stop",
    "osm_node_id": 7155775487,
    "osm_snap_dist_deg": 0.0005126290373982922
  },
  {
    "lon": 73.87794000000001,
    "lat": 18.45799999999998,
    "id": "bus_33193",
    "code": "153896",
    "name": "Salve Garden",
    "type": "bus_stop",
    "osm_node_id": 4335051513,
    "osm_snap_dist_deg": 7.520492007141137e-05
  },
  {
    "lon": 73.81498999999998,
    "lat": 18.66682,
    "id": "bus_33195",
    "code": "153314",
    "name": "Pawarvasti Chikhali Road",
    "type": "bus_stop",
    "osm_node_id": 2411887125,
    "osm_snap_dist_deg": 0.05718682330931067
  },
  {
    "lon": 74.00554000000001,
    "lat": 18.41524000000001,
    "id": "bus_33196",
    "code": "155058",
    "name": "Zendewadi",
    "type": "bus_stop",
    "osm_node_id": 8021717699,
    "osm_snap_dist_deg": 0.05880950473733332
  },
  {
    "lon": 73.89256,
    "lat": 18.53786999999998,
    "id": "bus_33198",
    "code": "152072",
    "name": "Kawdewadi",
    "type": "bus_stop",
    "osm_node_id": 674929981,
    "osm_snap_dist_deg": 8.195395050406737e-05
  },
  {
    "lon": 73.87961000000001,
    "lat": 18.45058,
    "id": "bus_33200",
    "code": "154105",
    "name": "Shatrunjay Mandir",
    "type": "bus_stop",
    "osm_node_id": 2699700459,
    "osm_snap_dist_deg": 0.00017957062676699807
  },
  {
    "lon": 73.86145,
    "lat": 18.48090000000001,
    "id": "bus_33201",
    "code": "154797",
    "name": "Vasantbaug",
    "type": "bus_stop",
    "osm_node_id": 2234729810,
    "osm_snap_dist_deg": 0.0001865773030163183
  },
  {
    "lon": 73.89065,
    "lat": 18.47903,
    "id": "bus_33202",
    "code": "154678",
    "name": "U Co Bank",
    "type": "bus_stop",
    "osm_node_id": 10225344872,
    "osm_snap_dist_deg": 0.00014014599530697182
  },
  {
    "lon": 73.66851,
    "lat": 18.54878999999999,
    "id": "bus_33204",
    "code": "151597",
    "name": "Hotel Rajyog",
    "type": "bus_stop",
    "osm_node_id": 5246740988,
    "osm_snap_dist_deg": 0.09371830952962643
  },
  {
    "lon": 73.88312999999998,
    "lat": 18.58269000000001,
    "id": "bus_437",
    "code": "30002",
    "name": "Bhairav Nagar",
    "type": "bus_stop",
    "osm_node_id": 2635068686,
    "osm_snap_dist_deg": 4.0798284299186716e-05
  },
  {
    "lon": 73.87846000000003,
    "lat": 18.50585999999998,
    "id": "bus_33207",
    "code": "151843",
    "name": "Juna Pulgate",
    "type": "bus_stop",
    "osm_node_id": 9880239336,
    "osm_snap_dist_deg": 0.00019531553955019182
  },
  {
    "lon": 73.89438000000003,
    "lat": 18.59543999999999,
    "id": "bus_440",
    "code": "30005",
    "name": "Dhanori Gaon",
    "type": "bus_stop",
    "osm_node_id": 10994103382,
    "osm_snap_dist_deg": 0.0001905044356285604
  },
  {
    "lon": 73.78213999999998,
    "lat": 18.51539000000001,
    "id": "bus_33208",
    "code": "150400",
    "name": "Bavdhangaon",
    "type": "bus_stop",
    "osm_node_id": 10839498745,
    "osm_snap_dist_deg": 0.00030973151275172795
  },
  {
    "lon": 73.89052,
    "lat": 18.59211999999999,
    "id": "bus_441",
    "code": "30006",
    "name": "Dhanori Shala",
    "type": "bus_stop",
    "osm_node_id": 11974572580,
    "osm_snap_dist_deg": 0.0001072039178457541
  },
  {
    "lon": 73.79801,
    "lat": 18.48546000000001,
    "id": "bus_33210",
    "code": "150769",
    "name": "Cipla Center",
    "type": "bus_stop",
    "osm_node_id": 10239887302,
    "osm_snap_dist_deg": 0.00023102229330565488
  },
  {
    "lon": 73.88700999999999,
    "lat": 18.58775000000001,
    "id": "bus_442",
    "code": "30007",
    "name": "Gokul Nagar",
    "type": "bus_stop",
    "osm_node_id": 2633692598,
    "osm_snap_dist_deg": 0.00010554278753624202
  },
  {
    "lon": 73.83434999999999,
    "lat": 18.4493,
    "id": "bus_33211",
    "code": "150554",
    "name": "Bhumkarnagar",
    "type": "bus_stop",
    "osm_node_id": 5160275404,
    "osm_snap_dist_deg": 4.503709581953468e-05
  },
  {
    "lon": 73.66414999999999,
    "lat": 18.48601999999998,
    "id": "bus_33212",
    "code": "154698",
    "name": "Urawdegaon",
    "type": "bus_stop",
    "osm_node_id": 10246090247,
    "osm_snap_dist_deg": 0.0993035652498429
  },
  {
    "lon": 73.86072999999999,
    "lat": 18.55511,
    "id": "bus_444",
    "code": "30009",
    "name": "Holkar Pool",
    "type": "bus_stop",
    "osm_node_id": 2183016850,
    "osm_snap_dist_deg": 0.00043412658293839
  },
  {
    "lon": 73.83988,
    "lat": 18.65076000000001,
    "id": "bus_33213",
    "code": "153963",
    "name": "Santnagar MIDC Police Station",
    "type": "bus_stop",
    "osm_node_id": 7981427372,
    "osm_snap_dist_deg": 0.04185805317941687
  },
  {
    "lon": 73.88814999999998,
    "lat": 18.67313000000003,
    "id": "bus_33214",
    "code": "154564",
    "name": "Tapkirnagar Moshi Road",
    "type": "bus_stop",
    "osm_node_id": 10244389978,
    "osm_snap_dist_deg": 0.06377975082189673
  },
  {
    "lon": 73.90643999999999,
    "lat": 18.59726000000002,
    "id": "bus_446",
    "code": "30011",
    "name": "Jakatnaka",
    "type": "bus_stop",
    "osm_node_id": 2633692658,
    "osm_snap_dist_deg": 5.1995095915292736e-05
  },
  {
    "lon": 73.90084999999999,
    "lat": 18.59738,
    "id": "bus_447",
    "code": "30012",
    "name": "Kamal Park",
    "type": "bus_stop",
    "osm_node_id": 4700677340,
    "osm_snap_dist_deg": 0.00014401513810216203
  },
  {
    "lon": 73.83888000000002,
    "lat": 18.56754000000001,
    "id": "bus_33220",
    "code": "151424",
    "name": "Gopi Chal",
    "type": "bus_stop",
    "osm_node_id": 10243888659,
    "osm_snap_dist_deg": 0.000272111098627969
  },
  {
    "lon": 73.79381000000001,
    "lat": 18.53898000000001,
    "id": "bus_33222",
    "code": "152208",
    "name": "Kokate Aali",
    "type": "bus_stop",
    "osm_node_id": 245647521,
    "osm_snap_dist_deg": 0.00013276580885160323
  },
  {
    "lon": 73.81902000000001,
    "lat": 18.59244000000001,
    "id": "bus_33226",
    "code": "150133",
    "name": "Ambedkarnagar Pimplegurav",
    "type": "bus_stop",
    "osm_node_id": 4695000302,
    "osm_snap_dist_deg": 6.38704939806825e-05
  },
  {
    "lon": 73.80975999999998,
    "lat": 18.54988000000001,
    "id": "bus_33227",
    "code": "150380",
    "name": "Baner Phata",
    "type": "bus_stop",
    "osm_node_id": 5463717522,
    "osm_snap_dist_deg": 0.00026115169918993283
  },
  {
    "lon": 73.87889,
    "lat": 18.57055000000002,
    "id": "bus_460",
    "code": "30027",
    "name": "Sathe Biscuit",
    "type": "bus_stop",
    "osm_node_id": 2632233673,
    "osm_snap_dist_deg": 0.0002990911900897371
  },
  {
    "lon": 73.73996999999999,
    "lat": 18.42745,
    "id": "bus_33228",
    "code": "152303",
    "name": "Kudje Shala",
    "type": "bus_stop",
    "osm_node_id": 618551629,
    "osm_snap_dist_deg": 0.02937557980314142
  },
  {
    "lon": 73.91482000000003,
    "lat": 18.59743000000002,
    "id": "bus_461",
    "code": "30028",
    "name": "Sathe Nagar",
    "type": "bus_stop",
    "osm_node_id": 4861811084,
    "osm_snap_dist_deg": 0.00010004049184784519
  },
  {
    "lon": 73.80947,
    "lat": 18.55337999999999,
    "id": "bus_33229",
    "code": "153929",
    "name": "Sanewadi",
    "type": "bus_stop",
    "osm_node_id": 10536229386,
    "osm_snap_dist_deg": 8.473446759348019e-05
  },
  {
    "lon": 73.77053999999998,
    "lat": 18.54809000000002,
    "id": "bus_33231",
    "code": "153736",
    "name": "Ranwarevasti",
    "type": "bus_stop",
    "osm_node_id": 10243919457,
    "osm_snap_dist_deg": 0.0005224746979714159
  },
  {
    "lon": 73.87001,
    "lat": 18.44901999999998,
    "id": "bus_33232",
    "code": "154447",
    "name": "Sundarban",
    "type": "bus_stop",
    "osm_node_id": 8003287298,
    "osm_snap_dist_deg": 6.128898760205312e-05
  },
  {
    "lon": 73.85817,
    "lat": 18.49927999999999,
    "id": "bus_467",
    "code": "30034",
    "name": "Swargate",
    "type": "bus_stop",
    "osm_node_id": 7634616077,
    "osm_snap_dist_deg": 0.00020722572233632734
  },
  {
    "lon": 73.68414000000001,
    "lat": 18.51114999999999,
    "id": "bus_33235",
    "code": "153143",
    "name": "Oskar Company",
    "type": "bus_stop",
    "osm_node_id": 7127988572,
    "osm_snap_dist_deg": 0.07801930977968007
  },
  {
    "lon": 73.85295000000004,
    "lat": 18.50588999999999,
    "id": "bus_469",
    "code": "30036",
    "name": "Abhinav College",
    "type": "bus_stop",
    "osm_node_id": 7975937054,
    "osm_snap_dist_deg": 0.000330358547601776
  },
  {
    "lon": 73.94036,
    "lat": 18.53108999999999,
    "id": "bus_33237",
    "code": "154155",
    "name": "Shindevasti Mundhwa",
    "type": "bus_stop",
    "osm_node_id": 7986565487,
    "osm_snap_dist_deg": 7.396053001361678e-05
  },
  {
    "lon": 73.79149000000002,
    "lat": 18.48996999999999,
    "id": "bus_33239",
    "code": "152638",
    "name": "Manikchand Dhariwal Sinhagad College",
    "type": "bus_stop",
    "osm_node_id": 7121622841,
    "osm_snap_dist_deg": 0.00011888755193419991
  },
  {
    "lon": 73.83927,
    "lat": 18.50117000000002,
    "id": "bus_33240",
    "code": "150890",
    "name": "Dattawadi",
    "type": "bus_stop",
    "osm_node_id": 822803278,
    "osm_snap_dist_deg": 0.0002329901714840656
  },
  {
    "lon": 73.84086000000002,
    "lat": 18.523,
    "id": "bus_474",
    "code": "30041",
    "name": "Fergusson College",
    "type": "bus_stop",
    "osm_node_id": 11109258283,
    "osm_snap_dist_deg": 0.00033046574708788987
  },
  {
    "lon": 73.84178999999999,
    "lat": 18.52646999999998,
    "id": "bus_475",
    "code": "30042",
    "name": "Dyaneshwer paduka",
    "type": "bus_stop",
    "osm_node_id": 11461776259,
    "osm_snap_dist_deg": 0.00021232920194636724
  },
  {
    "lon": 73.84331000000002,
    "lat": 18.50491999999998,
    "id": "bus_33244",
    "code": "153648",
    "name": "Rajendranagar",
    "type": "bus_stop",
    "osm_node_id": 2252147795,
    "osm_snap_dist_deg": 0.00010912584479080057
  },
  {
    "lon": 73.66553999999998,
    "lat": 18.54620999999998,
    "id": "bus_33245",
    "code": "154341",
    "name": "SNZ Chemical Company",
    "type": "bus_stop",
    "osm_node_id": 5246740988,
    "osm_snap_dist_deg": 0.09683160704591623
  },
  {
    "lon": 73.88847,
    "lat": 18.58964,
    "id": "bus_478",
    "code": "40002",
    "name": "Bhairav Nagar",
    "type": "bus_stop",
    "osm_node_id": 8002687232,
    "osm_snap_dist_deg": 4.0440079128776284e-05
  },
  {
    "lon": 73.85013,
    "lat": 18.51732000000002,
    "id": "bus_33246",
    "code": "153688",
    "name": "Ramanbaug Shala",
    "type": "bus_stop",
    "osm_node_id": 2266580500,
    "osm_snap_dist_deg": 0.0006653181043481891
  },
  {
    "lon": 73.88049000000001,
    "lat": 18.57593999999999,
    "id": "bus_480",
    "code": "40005",
    "name": "Dagdi Khaan",
    "type": "bus_stop",
    "osm_node_id": 7146646817,
    "osm_snap_dist_deg": 8.897668234194905e-05
  },
  {
    "lon": 73.93450000000003,
    "lat": 18.53265000000001,
    "id": "bus_33249",
    "code": "150304",
    "name": "Badhevasti",
    "type": "bus_stop",
    "osm_node_id": 6262936406,
    "osm_snap_dist_deg": 3.165375172926015e-05
  },
  {
    "lon": 73.86411,
    "lat": 18.44816999999999,
    "id": "bus_33250",
    "code": "153643",
    "name": "Rajas Society Corner",
    "type": "bus_stop",
    "osm_node_id": 2621107726,
    "osm_snap_dist_deg": 0.0001396856828727435
  },
  {
    "lon": 73.89057000000001,
    "lat": 18.59192999999998,
    "id": "bus_484",
    "code": "40009",
    "name": "Gokul Nagar",
    "type": "bus_stop",
    "osm_node_id": 11974572581,
    "osm_snap_dist_deg": 0.00015401444737618157
  },
  {
    "lon": 73.86995999999998,
    "lat": 18.52381999999999,
    "id": "bus_33252",
    "code": "151810",
    "name": "Jilha Parishad",
    "type": "bus_stop",
    "osm_node_id": 247740216,
    "osm_snap_dist_deg": 7.214166616628885e-05
  },
  {
    "lon": 73.89255000000001,
    "lat": 18.53786999999998,
    "id": "bus_33253",
    "code": "153121",
    "name": "North Len",
    "type": "bus_stop",
    "osm_node_id": 674929981,
    "osm_snap_dist_deg": 8.397886640493352e-05
  },
  {
    "lon": 73.85961,
    "lat": 18.44749,
    "id": "bus_33254",
    "code": "152062",
    "name": "Katraj",
    "type": "bus_stop",
    "osm_node_id": 6265158959,
    "osm_snap_dist_deg": 0.0001966931620560072
  },
  {
    "lon": 73.86025000000001,
    "lat": 18.55468,
    "id": "bus_486",
    "code": "40011",
    "name": "Holkar Pool",
    "type": "bus_stop",
    "osm_node_id": 11809441433,
    "osm_snap_dist_deg": 0.0005929126242607384
  },
  {
    "lon": 73.87744,
    "lat": 18.46123999999999,
    "id": "bus_33255",
    "code": "152351",
    "name": "Ladies Hostel",
    "type": "bus_stop",
    "osm_node_id": 1346630210,
    "osm_snap_dist_deg": 0.00024045660729642433
  },
  {
    "lon": 73.9064,
    "lat": 18.59716000000002,
    "id": "bus_488",
    "code": "40013",
    "name": "Jakatnaka",
    "type": "bus_stop",
    "osm_node_id": 2633692658,
    "osm_snap_dist_deg": 0.00010516410982995901
  },
  {
    "lon": 74.01463,
    "lat": 18.38886000000002,
    "id": "bus_33256",
    "code": "151701",
    "name": "ITI Saswad Road",
    "type": "bus_stop",
    "osm_node_id": 8021717699,
    "osm_snap_dist_deg": 0.07938851533721701
  },
  {
    "lon": 73.85550999999998,
    "lat": 18.50111000000001,
    "id": "bus_33257",
    "code": "153072",
    "name": "Nehru Stadium",
    "type": "bus_stop",
    "osm_node_id": 245646537,
    "osm_snap_dist_deg": 9.588435741093369e-05
  },
  {
    "lon": 73.77402,
    "lat": 18.34363999999998,
    "id": "bus_33258",
    "code": "154247",
    "name": "Shivtarwadi Phata",
    "type": "bus_stop",
    "osm_node_id": 618551629,
    "osm_snap_dist_deg": 0.08755313375758428
  },
  {
    "lon": 73.90062000000002,
    "lat": 18.59709000000002,
    "id": "bus_491",
    "code": "40017",
    "name": "Madhav Nagar",
    "type": "bus_stop",
    "osm_node_id": 4700677314,
    "osm_snap_dist_deg": 0.00014615450726357954
  },
  {
    "lon": 73.82917000000002,
    "lat": 18.47508999999998,
    "id": "bus_33259",
    "code": "152512",
    "name": "Mahadevnagar Hingne",
    "type": "bus_stop",
    "osm_node_id": 2210912600,
    "osm_snap_dist_deg": 0.00014473762470766012
  },
  {
    "lon": 73.99169000000002,
    "lat": 18.52754999999998,
    "id": "bus_33260",
    "code": "152648",
    "name": "Manjari Kh",
    "type": "bus_stop",
    "osm_node_id": 7983856892,
    "osm_snap_dist_deg": 0.040154049213515584
  },
  {
    "lon": 73.90161,
    "lat": 18.53914000000002,
    "id": "bus_33262",
    "code": "150438",
    "name": "Bhairoba Pumping Station",
    "type": "bus_stop",
    "osm_node_id": 2848157424,
    "osm_snap_dist_deg": 0.00010322683760437146
  },
  {
    "lon": 73.84938000000001,
    "lat": 18.52476000000003,
    "id": "bus_494",
    "code": "40021",
    "name": "Modern High School",
    "type": "bus_stop",
    "osm_node_id": 11461793083,
    "osm_snap_dist_deg": 6.122981297137977e-05
  },
  {
    "lon": 73.83873999999999,
    "lat": 18.33927,
    "id": "bus_33263",
    "code": "150872",
    "name": "Dattamandir Shivapurgaon",
    "type": "bus_stop",
    "osm_node_id": 8017799687,
    "osm_snap_dist_deg": 0.09139818943398365
  },
  {
    "lon": 73.80291999999999,
    "lat": 18.59761,
    "id": "bus_33264",
    "code": "151437",
    "name": "Govind Garden Chowk",
    "type": "bus_stop",
    "osm_node_id": 9162487325,
    "osm_snap_dist_deg": 0.00026867039285118234
  },
  {
    "lon": 73.81844000000002,
    "lat": 18.62332,
    "id": "bus_33265",
    "code": "155029",
    "name": "YCM Hospital",
    "type": "bus_stop",
    "osm_node_id": 10244063099,
    "osm_snap_dist_deg": 0.013708633764886997
  },
  {
    "lon": 73.89095,
    "lat": 18.45292999999999,
    "id": "bus_33266",
    "code": "152134",
    "name": "Khadi Machine Katraj Kondhwa Road",
    "type": "bus_stop",
    "osm_node_id": 10232604667,
    "osm_snap_dist_deg": 0.00012996234068946846
  },
  {
    "lon": 73.68445000000001,
    "lat": 18.72156999999998,
    "id": "bus_33267",
    "code": "151804",
    "name": "Jijamata Chowk",
    "type": "bus_stop",
    "osm_node_id": 4693596413,
    "osm_snap_dist_deg": 0.1362870792785687
  },
  {
    "lon": 73.85014000000002,
    "lat": 18.46539999999999,
    "id": "bus_33268",
    "code": "150976",
    "name": "Dhankawadi",
    "type": "bus_stop",
    "osm_node_id": 711429896,
    "osm_snap_dist_deg": 6.490392903396547e-05
  },
  {
    "lon": 73.67984000000003,
    "lat": 18.54158999999998,
    "id": "bus_33269",
    "code": "151366",
    "name": "Godambevasti",
    "type": "bus_stop",
    "osm_node_id": 4704949625,
    "osm_snap_dist_deg": 0.08284163837639125
  },
  {
    "lon": 73.87904000000002,
    "lat": 18.57032000000001,
    "id": "bus_503",
    "code": "40030",
    "name": "Sathe Biscuit",
    "type": "bus_stop",
    "osm_node_id": 2632233673,
    "osm_snap_dist_deg": 0.0005301391704008793
  },
  {
    "lon": 73.87637000000001,
    "lat": 18.52302000000002,
    "id": "bus_33271",
    "code": "151445",
    "name": "GPO",
    "type": "bus_stop",
    "osm_node_id": 10213624315,
    "osm_snap_dist_deg": 5.254303000040098e-05
  },
  {
    "lon": 73.88224999999998,
    "lat": 18.51911999999999,
    "id": "bus_33272",
    "code": "152823",
    "name": "Mitti Ka Ghar",
    "type": "bus_stop",
    "osm_node_id": 10213873807,
    "osm_snap_dist_deg": 3.9304071033206805e-05
  },
  {
    "lon": 73.90882999999998,
    "lat": 18.59805,
    "id": "bus_505",
    "code": "40032",
    "name": "Torna garden",
    "type": "bus_stop",
    "osm_node_id": 10241869577,
    "osm_snap_dist_deg": 0.0001565461273806019
  },
  {
    "lon": 73.80912999999997,
    "lat": 18.56027000000001,
    "id": "bus_33273",
    "code": "151699",
    "name": "ITI Aundh",
    "type": "bus_stop",
    "osm_node_id": 2279179486,
    "osm_snap_dist_deg": 3.6259619389772e-05
  },
  {
    "lon": 73.78685999999999,
    "lat": 18.62952,
    "id": "bus_33277",
    "code": "150853",
    "name": "Darshan Hall",
    "type": "bus_stop",
    "osm_node_id": 9713166865,
    "osm_snap_dist_deg": 0.019284430391640923
  },
  {
    "lon": 73.88592999999999,
    "lat": 18.45389999999999,
    "id": "bus_33278",
    "code": "151374",
    "name": "Godown Katraj Kondhwa Road",
    "type": "bus_stop",
    "osm_node_id": 2324077020,
    "osm_snap_dist_deg": 0.00013979942775969932
  },
  {
    "lon": 73.82671999999998,
    "lat": 18.48935000000001,
    "id": "bus_33280",
    "code": "153637",
    "name": "Rajaram Pul Corner",
    "type": "bus_stop",
    "osm_node_id": 2358247562,
    "osm_snap_dist_deg": 0.00025922548099820586
  },
  {
    "lon": 73.87756000000002,
    "lat": 18.46325,
    "id": "bus_33282",
    "code": "151175",
    "name": "Gajanan Maharajnagar",
    "type": "bus_stop",
    "osm_node_id": 4335051423,
    "osm_snap_dist_deg": 7.235385268920367e-05
  },
  {
    "lon": 73.84316,
    "lat": 18.44887999999998,
    "id": "bus_33283",
    "code": "153698",
    "name": "Ramnagari",
    "type": "bus_stop",
    "osm_node_id": 10213725636,
    "osm_snap_dist_deg": 0.00022663197038885578
  },
  {
    "lon": 73.87375000000002,
    "lat": 18.553,
    "id": "bus_516",
    "code": "30001",
    "name": "Ambedkar Society",
    "type": "bus_stop",
    "osm_node_id": 2631171993,
    "osm_snap_dist_deg": 0.00020406364202981575
  },
  {
    "lon": 73.75416000000001,
    "lat": 18.42667000000001,
    "id": "bus_33284",
    "code": "153956",
    "name": "Sant Dharmaji Samadhi",
    "type": "bus_stop",
    "osm_node_id": 618551629,
    "osm_snap_dist_deg": 0.015592986011969259
  },
  {
    "lon": 73.87180000000002,
    "lat": 18.54992999999999,
    "id": "bus_517",
    "code": "30004",
    "name": "Deccan College",
    "type": "bus_stop",
    "osm_node_id": 2629943135,
    "osm_snap_dist_deg": 9.361565037914582e-05
  },
  {
    "lon": 73.76945,
    "lat": 18.43152000000002,
    "id": "bus_33285",
    "code": "152743",
    "name": "MES Canteen IAT",
    "type": "bus_stop",
    "osm_node_id": 618551629,
    "osm_snap_dist_deg": 0.0005673365579837707
  },
  {
    "lon": 73.87517,
    "lat": 18.55622999999999,
    "id": "bus_518",
    "code": "30010",
    "name": "Homeguard",
    "type": "bus_stop",
    "osm_node_id": 511976019,
    "osm_snap_dist_deg": 0.0007742325361395772
  },
  {
    "lon": 73.86941000000003,
    "lat": 18.49250000000001,
    "id": "bus_33286",
    "code": "153528",
    "name": "PAndT Colony",
    "type": "bus_stop",
    "osm_node_id": 679052950,
    "osm_snap_dist_deg": 0.0005242237117839125
  },
  {
    "lon": 73.87875,
    "lat": 18.56651,
    "id": "bus_519",
    "code": "30017",
    "name": "Mental Hospital",
    "type": "bus_stop",
    "osm_node_id": 2632190164,
    "osm_snap_dist_deg": 0.0002441101390752093
  },
  {
    "lon": 74.04476,
    "lat": 18.69855000000002,
    "id": "bus_33287",
    "code": "150527",
    "name": "Bhondvevasti Nagar Road",
    "type": "bus_stop",
    "osm_node_id": 7986862756,
    "osm_snap_dist_deg": 0.13209075940523923
  },
  {
    "lon": 73.87644,
    "lat": 18.55990000000001,
    "id": "bus_520",
    "code": "30023",
    "name": "Phule Nagar",
    "type": "bus_stop",
    "osm_node_id": 7111397972,
    "osm_snap_dist_deg": 0.00035644606885976393
  },
  {
    "lon": 73.92295000000001,
    "lat": 18.56228999999999,
    "id": "bus_33288",
    "code": "150020",
    "name": "5 Wa Mile",
    "type": "bus_stop",
    "osm_node_id": 7247771925,
    "osm_snap_dist_deg": 0.00029587892793792904
  },
  {
    "lon": 73.87366,
    "lat": 18.55273,
    "id": "bus_521",
    "code": "40001",
    "name": "Ambedkar Society",
    "type": "bus_stop",
    "osm_node_id": 2631171993,
    "osm_snap_dist_deg": 0.00017750484500516408
  },
  {
    "lon": 73.87197000000002,
    "lat": 18.55008999999999,
    "id": "bus_522",
    "code": "40006",
    "name": "Deccan College",
    "type": "bus_stop",
    "osm_node_id": 2629943135,
    "osm_snap_dist_deg": 0.00027404724045580547
  },
  {
    "lon": 73.72217999999998,
    "lat": 18.68630999999998,
    "id": "bus_33291",
    "code": "150941",
    "name": "Dehuroad Police Lane",
    "type": "bus_stop",
    "osm_node_id": 4693596413,
    "osm_snap_dist_deg": 0.08652938209815471
  },
  {
    "lon": 73.87865000000001,
    "lat": 18.56620000000001,
    "id": "bus_524",
    "code": "40019",
    "name": "Mental Hospital",
    "type": "bus_stop",
    "osm_node_id": 10242096133,
    "osm_snap_dist_deg": 5.6031598230775714e-05
  },
  {
    "lon": 73.77032000000001,
    "lat": 18.64573000000001,
    "id": "bus_33293",
    "code": "153483",
    "name": "Prachi Apartment",
    "type": "bus_stop",
    "osm_node_id": 4694060458,
    "osm_snap_dist_deg": 0.0355171263882779
  },
  {
    "lon": 73.87641999999998,
    "lat": 18.55958000000003,
    "id": "bus_525",
    "code": "40026",
    "name": "Phule Nagar",
    "type": "bus_stop",
    "osm_node_id": 7111397972,
    "osm_snap_dist_deg": 0.00012370044464452392
  },
  {
    "lon": 73.91975,
    "lat": 18.59754000000001,
    "id": "bus_526",
    "code": "30021",
    "name": "Panyachi Taki",
    "type": "bus_stop",
    "osm_node_id": 10241892214,
    "osm_snap_dist_deg": 8.142143453839206e-05
  },
  {
    "lon": 73.64173999999998,
    "lat": 18.57676000000001,
    "id": "bus_33294",
    "code": "153773",
    "name": "Rihegaon",
    "type": "bus_stop",
    "osm_node_id": 6270573808,
    "osm_snap_dist_deg": 0.12056175813604464
  },
  {
    "lon": 73.92090000000002,
    "lat": 18.59746000000002,
    "id": "bus_527",
    "code": "40024",
    "name": "Panyachi Taki",
    "type": "bus_stop",
    "osm_node_id": 8005400805,
    "osm_snap_dist_deg": 8.8487739237352e-05
  },
  {
    "lon": 73.89209,
    "lat": 18.59211999999999,
    "id": "bus_33295",
    "code": "153857",
    "name": "Sai Corner",
    "type": "bus_stop",
    "osm_node_id": 8003034297,
    "osm_snap_dist_deg": 5.1307894139265885e-05
  },
  {
    "lon": 73.87515000000002,
    "lat": 18.55588000000001,
    "id": "bus_528",
    "code": "40012",
    "name": "Homeguard",
    "type": "bus_stop",
    "osm_node_id": 2629943193,
    "osm_snap_dist_deg": 0.0004557911144543119
  },
  {
    "lon": 73.85034000000003,
    "lat": 18.49366000000002,
    "id": "bus_33296",
    "code": "153247",
    "name": "Parvati Gaon",
    "type": "bus_stop",
    "osm_node_id": 10239784245,
    "osm_snap_dist_deg": 1.3505924662237522e-05
  },
  {
    "lon": 73.79230000000001,
    "lat": 18.56173000000002,
    "id": "bus_33298",
    "code": "154550",
    "name": "Tamhane Chowk",
    "type": "bus_stop",
    "osm_node_id": 4867425509,
    "osm_snap_dist_deg": 0.00023520425168076044
  },
  {
    "lon": 73.80166999999999,
    "lat": 18.62123000000001,
    "id": "bus_33299",
    "code": "151974",
    "name": "Karachi Chowk",
    "type": "bus_stop",
    "osm_node_id": 681268744,
    "osm_snap_dist_deg": 0.01094423392020961
  },